Unnamed: 0,price,full_address,zipcode,beds,baths,latitude,longitude
1,1150000,"1541 N Carolina Ave NE, Washington, DC 20002",20002,3,4,38.892773,-76.98295
2,28995000,"2400 Foxhall Rd NW, Washington, DC 20007",20007,5,9,38.92223,-77.09005
3,1195000,"5348 29th St NW, Washington, DC 20015",20015,4,4,38.96019,-77.05902
4,425900,"36 Channing St NW #A, Washington, DC 20001",20001,3,2,38.92219,-77.01049
5,325000,"4100 W W St NW #411, Washington, DC 20007",20007,2,1,38.91934,-77.08196
6,260000,"2521-2521A Minnesota Ave SE, Washington, DC 20020",20020,3,2,38.8739,-76.9695
7,600000,"1126 Montello Ave NE, Washington, DC 20002",20002,3,2,38.90352,-76.98989
9,999900,"1679 Montello Ave NE, Washington, DC 20002",20002,6,4,38.9088,-76.98572
11,116900,"505 Kennedy St NW UNIT 202, Washington, DC 20011",20011,2,1,38.95665,-77.0202
12,729500,"2415 20th St NW APT 27, Washington, DC 20009",20009,2,2,38.92175,-77.04657
14,599000,"2007 O St NW APT 105, Washington, DC 20036",20036,2,1,38.90882,-77.04546
15,724900,"213 Webster St NW, Washington, DC 20011",20011,3,2,38.94452,-77.01485
16,499000,"1507 Queen St NE, Washington, DC 20002",20002,2,2,38.90491,-76.98197
18,950000,"1008 Euclid St NW, Washington, DC 20001",20001,3,4,38.92371,-77.02595
19,1252000,"1332 Newton St NE, Washington, DC 20017",20017,5,4,38.93391,-76.98775
20,1075000,"1216 W St NW, Washington, DC 20009",20009,3,3,38.91902,-77.02891
22,724900,"241 14th Pl NE, Washington, DC 20002",20002,2,2,38.89306,-76.98431
23,175000,"3464 23rd St SE, Washington, DC 20020",20020,2,1,38.84588,-76.97144
24,1249000,"18 Quincy Pl NE, Washington, DC 20002",20002,4,4,38.91204,-77.00807
26,739900,"143 1st St S, Washington, DC 20001",20001,3,3,38.88751,-77.01216
27,199999,"1301 Delaware Ave SW APT N614, Washington, DC 20024",20024,2,2,38.8742,-77.01545
28,349000,"3018 12th St NE UNIT 1, Washington, DC 20017",20017,2,2,38.92814,-76.99084
29,860000,"88 V St SW APT 807, Washington, DC 20024",20024,1,2,38.8645,-77.01182
30,1069000,"824 Otis Pl NW, Washington, DC 20010",20010,5,5,38.93392,-77.02516
31,925000,"605 Acker Pl NE, Washington, DC 20002",20002,3,3,38.89662,-76.99799
32,1099000,"1015 Paper Mill Ct NW #1015, Washington, DC 20007",20007,3,3,38.90323,-77.06405
33,849500,"1536 1st St NW, Washington, DC 20001",20001,3,2,38.91071,-77.01239
34,324900,"1422 Shepherd St NW #1, Washington, DC 20011",20011,2,2,38.93954,-77.03383
36,675000,"2123 California St NW APT C6, Washington, DC 20008",20008,3,2,38.9168,-77.04786
37,423334,"2750 14th St NW APT 302, Washington, DC 20009",20009,2,1,38.92524,-77.03265
38,549900,"379 O St SW #T, Washington, DC 20024",20024,3,2,38.87355,-77.016685
40,1695000,"2501 M St NW APT 705, Washington, DC 20037",20037,2,3,38.90555,-77.05386
43,487300,"1657 Gales NE #1, Washington, DC 20002",20002,3,3,38.898136,-76.98016
44,1375000,"1217 N St NW #PENTHOUSE, Washington, DC 20005",20005,3,2,38.907375,-77.02892
45,589000,"1840 Biltmore St NW APT 33, Washington, DC 20009",20009,2,1,38.922,-77.04444
47,599900,"1358 Valley Pl SE, Washington, DC 20020",20020,3,3,38.86272,-76.9868
50,297700,"7175 12th St NW UNIT 414, Washington, DC 20012",20012,2,2,38.976837,-77.02767
54,150000,"2006 Fort Davis St SE APT 202, Washington, DC 20020",20020,1,1,38.86426,-76.94983
55,499000,"1623 Marion St NW, Washington, DC 20001",20001,3,1,38.91187,-77.02073
56,1400000,"5231 Watson St NW, Washington, DC 20016",20016,4,4,38.93508,-77.10918
68,519000,"1740 18th St NW APT T5, Washington, DC 20009",20009,2,2,38.91377,-77.04201
69,139000,"5106 Washington Pl NE #F-8, Washington, DC 20018",20018,2,1,38.921032,-76.994156
70,297700,"1625 Eckington Pl NE APT 512, Washington, DC 20002",20002,2,2,38.91202,-77.00361
71,114745,"1429 Girard St NW #101, Washington, DC 20009",20009,2,1,38.92561,-77.03377
77,325000,"914 52nd St NE, Washington, DC 20019",20019,3,2,38.9025,-76.92562
79,698500,"3225 Grace St NW APT 218, Washington, DC 20007",20007,2,2,38.90411,-77.06342
127,11995000,"4825 Dexter Ter NW, Washington, DC 20007",20007,8,10,38.92542,-77.0933
130,1279900,"4509 Clark Pl NW, Washington, DC 20007",20007,4,3,38.90789,-77.08697
131,15995000,"3508 Prospect St NW, Washington, DC 20007",20007,8,7,38.90575,-77.06947
132,13500000,"2815 Woodland Dr NW, Washington, DC 20008",20008,5,9,38.92112,-77.05472
144,100000,"2400 Good Hope Rd SE APT 3, Washington, DC 20020",20020,3,1,38.86314,-76.97245
145,1099900,"1007 E St SE, Washington, DC 20003",20003,4,2,38.88252,-76.99227
152,1999999,"908 S Carolina Ave SE, Washington, DC 20003",20003,4,4,38.88497,-76.99332
153,1490000,"516 10th St SE, Washington, DC 20003",20003,3,3,38.88203,-76.99241
154,649900,"1253 Holbrook Ter NE #A, Washington, DC 20002",20002,3,3,38.90672,-76.98522
155,499000,"1645 W Virginia Ave NE APT 1, Washington, DC 20002",20002,3,3,38.909042,-76.9874
160,859000,"1124 25th St NW APT 203, Washington, DC 20037",20037,2,3,38.90459,-77.05348
161,449900,"1511 22nd St NW APT 44, Washington, DC 20037",20037,1,1,38.91013,-77.04857
162,750000,"1332 22nd St NW APT 1, Washington, DC 20037",20037,2,2,38.90824,-77.04907
163,569000,"2475 Virginia Ave NW #304, Washington, DC 20037",20037,2,2,38.89909,-77.05252
164,350000,"2130 N St NW APT 209, Washington, DC 20037",20037,1,1,38.90708,-77.04809
165,525000,"2700 Virginia Ave NW UNIT 504, Washington, DC 20037",20037,1,2,38.900105,-77.05597
166,310000,"730 24th St NW APT 406, Washington, DC 20037",20037,1,1,38.8991,-77.05175
167,725000,"2700 Virginia Ave NW #910, Washington, DC 20037",20037,2,2,38.90004,-77.05627
168,649000,"700 New Hampshire Ave NW #916, Washington, DC 20037",20037,2,2,38.898457,-77.054855
170,285000,"950 25th St NW #1027, Washington, DC 20037",20037,1,1,38.9021,-77.05357
171,599900,"2525 Pennsylvania Ave NW #302, Washington, DC 20037",20037,1,1,38.90416,-77.05394
172,415000,"922 24th St NW APT 621, Washington, DC 20037",20037,1,1,38.9015,-77.05166
173,265000,"950 25th St NW APT 814N, Washington, DC 20037",20037,1,1,38.90207,-77.05372
174,728000,"1111 25th St NW APT 508, Washington, DC 20037",20037,1,2,38.90479,-77.05303
175,995000,"2510 Virginia Ave NW #708, Washington, DC 20037",20037,3,3,38.899006,-77.05419
176,325000,"2401 H St NW APT 211, Washington, DC 20037",20037,1,1,38.89977,-77.05172
177,687500,"2475 Virginia Ave NW #222, Washington, DC 20037",20037,3,2,38.89909,-77.05252
178,604900,"305 Plan, 2525 PENN",20037,1,1,38.9042,-77.05391
179,599900,"2525 Pennsylvania Ave NW #305, Washington, DC 20037",20037,1,1,38.90416,-77.05394
180,525000,"700 New Hampshire Ave NW #1214, Washington, DC 20037",20037,1,1,38.898537,-77.05498
181,268000,"2475 Virginia Ave NW #727, Washington, DC 20037",20037,1,1,38.89909,-77.05252
182,1595000,"2700 Virginia Ave Nw #1504, Washington, DC 20037",20037,2,3,38.90013,-77.05602
183,549000,"700 New Hampshire Ave NW #320, Washington, DC 20037",20037,1,1,38.898373,-77.05531
184,845000,"700 New Hampshire Ave NW #117, Washington, DC 20037",20037,2,3,38.898468,-77.054886
186,785000,"700 New Hampshire Ave NW #901, Washington, DC 20037",20037,2,3,38.898388,-77.05547
187,405000,"2515 K St NW APT 204, Washington, DC 20037",20037,1,1,38.90292,-77.05392
188,265000,"950 25th St NW APT 608N, Washington, DC 20037",20037,1,1,38.902096,-77.05341
189,775000,"2510 Virginia Ave NW #401-N, Washington, DC 20037",20037,1,1,38.89924,-77.05502
190,3795000,"1111 24th St NW UNIT 73, Washington, DC 20037",20037,3,4,38.90414,-77.05137
191,1795000,"700 New Hampshire Ave NW #321, Washington, DC 20037",20037,3,4,38.89837,-77.055435
192,719900,"1111 24th St NW UNIT 58, Washington, DC 20037",20037,1,1,38.90411,-77.05122
193,4950000,"1111 24th St NW UNIT 93, Washington, DC 20037",20037,3,4,38.90414,-77.0512
195,2795000,"1177 22nd St NW UNIT 8D, Washington, DC 20037",20037,3,3,38.904922,-77.04863
196,1499000,"1177 22nd St NW #4M, Washington, DC 20037",20037,2,2,38.9048,-77.048546
197,899000,"1155 23rd St NW APT 3M, Washington, DC 20037",20037,1,2,38.90491,-77.04982
198,5444000,"2500 Virginia Ave NW #714/715, Washington, DC 20037",20037,5,6,38.89871,-77.05424
203,29950000,"2000 Massachusetts Ave NW, Washington, DC 20036",20036,4,7,38.9099,-77.04516
204,319000,"1330 New Hampshire Ave NW APT 424, Washington, DC 20036",20036,1,1,38.90807,-77.04491
205,439900,"1775 Church St NW #4, Washington, DC 20036",20036,1,1,38.91057,-77.04084
206,695000,"1745 N St NW UNIT 506, Washington, DC 20036",20036,2,2,38.90738,-77.03996
207,2350000,"1721 P St NW APT B, Washington, DC 20036",20036,4,4,38.90989,-77.03966
208,2499900,"1710 P St NW, Washington, DC 20036",20036,5,5,38.90942,-77.03906
209,2175000,"1728 Church St NW, Washington, DC 20036",20036,4,4,38.91025,-77.03942
210,4999900,"1720 Massachusetts Ave NW, Washington, DC 20036",20036,9,5,38.90788,-77.03931
211,389000,"1526 17th St NW APT 105, Washington, DC 20036",20036,1,1,38.91061,-77.03891
212,350000,"1711 Massachusetts Ave NW #334, Washington, DC 20036",20036,1,1,38.9085,-77.03916
213,425000,"1734 P St NW APT 53, Washington, DC 20036",20036,1,1,38.90935,-77.03995
214,1495000,"1745 N St NW #410, Washington, DC 20036",20036,2,3,38.90738,-77.03996
215,1399000,"1745 N St NW UNIT 411, Washington, DC 20036",20036,2,3,38.90745,-77.04028
216,1050000,"1745 N St NW UNIT 111, Washington, DC 20036",20036,2,3,38.90745,-77.04028
217,3750000,"1314 19th St NW, Washington, DC 20036",20036,11,5,38.90781,-77.0437
221,4000000,"1420 17th St NW, Washington, DC 20036",20036,6,5,38.90942,-77.03871
222,335000,"1711 Massachusetts Ave NW #302, Washington, DC 20036",20036,1,1,38.9085,-77.03916
224,420000,"1734 P St NW APT 43, Washington, DC 20036",20036,1,1,38.90935,-77.03995
225,635000,"1745 N St NW UNIT 112, Washington, DC 20036",20036,1,1,38.90738,-77.03996
227,650000,"1520 16th St NW APT 202, Washington, DC 20036",20036,2,2,38.91051,-77.03699
228,3100000,"1230 17th St NW, Washington, DC 20036",20036,5,4,38.90704,-77.03882
272,149900,"121 Galveston Pl SW APT 1, Washington, DC 20032",20032,2,1,38.82459,-77.01095
273,400000,"127 Darrington St SW, Washington, DC 20032",20032,3,2,38.82722,-77.01081
274,460000,"1212 Trenton Pl SE, Washington, DC 20032",20032,3,4,38.84087,-76.98927
275,590000,"3303 7th St SE, Washington, DC 20032",20032,4,4,38.84187,-76.99616
276,449900,"756 Upsal St SE, Washington, DC 20032",20032,4,3,38.83989,-76.99445
277,179900,"14 Halley Pl SE APT 304, Washington, DC 20032",20032,3,1,38.83523,-77.0066
279,64999,"4725 1st St SW APT 102, Washington, DC 20032",20032,1,1,38.82286,-77.00584
280,400200,"830 Heights Aly SE LOT 931, Washington, DC 20032",20032,3,4,38.84548,-76.9944
281,379900,"347 Parkland Pl SE, Washington, DC 20032",20032,3,2,38.84449,-76.99967
282,460000,"77 Danbury St SW, Washington, DC 20032",20032,3,4,38.82803,-77.00952
283,415000,"791 Barnaby St SE, Washington, DC 20032",20032,3,3,38.82879,-76.99489
284,390000,"521 Foxhall Pl SE, Washington, DC 20032",20032,4,2,38.83344,-76.99786
285,129500,"709 Brandywine St SE APT 101, Washington, DC 20032",20032,2,1,38.82987,-76.9957
286,399999,"98 Elmira St SW, Washington, DC 20032",20032,4,3,38.82587,-77.01007
287,300000,"674 Brandywine St SE, Washington, DC 20032",20032,3,2,38.83028,-76.99638
288,103000,"10 Halley Pl SE APT 203, Washington, DC 20032",20032,2,1,38.83542,-77.00687
289,550000,"3219 5th St SE, Washington, DC 20032",20032,4,5,38.84213,-76.99975
290,173000,"310 Atlantic St SE #102A, Washington, DC 20032",20032,2,1,38.83114,-77.00138
291,270000,"343 Parkland Pl SE, Washington, DC 20032",20032,3,2,38.84449,-76.99981
292,229000,"3221 8th St SE APT 3, Washington, DC 20032",20032,2,2,38.84255,-76.99539
293,450000,"532 Foxhall Pl SE, Washington, DC 20032",20032,3,2,38.83376,-76.9982
294,177000,"12 Halley Pl SE APT 303, Washington, DC 20032",20032,2,1,38.83546,-77.00657
295,559000,"139 Xenia St SE, Washington, DC 20032",20032,4,3,38.83282,-77.00351
296,140000,"3874 9th St SE APT 201, Washington, DC 20032",20032,2,1,38.83285,-76.99098
297,390000,"220 Newcomb St SE, Washington, DC 20032",20032,3,2,38.8492,-77.00492
298,499990,"The Cypress Plan, District Towns at St. Elizabeths East",20032,4,4,38.845356,-76.9936
299,369999,"623 Atlantic St SE, Washington, DC 20032",20032,2,2,38.83079,-76.99753
300,419900,"502 Chesapeake St SE, Washington, DC 20032",20032,3,2,38.82942,-76.99927
301,484900,"138 Chesapeake St SW, Washington, DC 20032",20032,3,2,38.82847,-77.01001
302,200000,"1112 Savannah St SE APT 34, Washington, DC 20032",20032,1,1,38.84311,-76.9907
304,474990,"1344 Barnaby Ter SE, Washington, DC 20032",20032,4,3,38.8331,-76.98853
305,415000,"138 Mississippi Ave SE, Washington, DC 20032",20032,3,2,38.83422,-77.004524
306,450000,"56 Brandywine St SW, Washington, DC 20032",20032,4,3,38.82938,-77.01141
307,330000,"133 Mississippi Ave SE, Washington, DC 20032",20032,3,2,38.83369,-77.00445
308,439999,"131 Darrington St SW, Washington, DC 20032",20032,3,3,38.82722,-77.01089
309,549000,"940 Mississippi Ave SE, Washington, DC 20032",20032,3,5,38.838966,-76.99231
310,505000,"3918 1st St SW, Washington, DC 20032",20032,4,3,38.83345,-77.00928
311,545000,"3830 1st St SE, Washington, DC 20032",20032,3,4,38.83366,-77.00554
314,1495000,"3712 Alton Pl NW, Washington, DC 20016",20016,4,3,38.94687,-77.07298
315,475000,"2141 Wisconsin Ave NW APT 404, Washington, DC 20007",20007,2,2,38.91911,-77.07015
334,469900,"1913 Trenton Pl SE, Washington, DC 20020",20020,3,3,38.84508,-76.97548
335,90000,"1920 Naylor Rd SE APT 107, Washington, DC 20020",20020,2,1,38.87304,-76.97694
336,525000,"1630 U St SE, Washington, DC 20020",20020,3,2,38.8653,-76.98095
337,100000,"2100 Fendall St SE UNIT 6, Washington, DC 20020",20020,2,1,38.86366,-76.98015
338,109900,"2825 31st St SE #A489, Washington, DC 20020",20020,2,1,38.85361,-76.96276
339,490000,"1361 Valley Pl SE, Washington, DC 20020",20020,4,2,38.86231,-76.98692
340,699714,"1714 25th St SE, Washington, DC 20020",20020,4,4,38.86878,-76.97071
341,569900,"1801 18th St SE, Washington, DC 20020",20020,4,3,38.86806,-76.97929
342,462750,"2513 Bowen Rd SE, Washington, DC 20020",20020,3,3,38.85889,-76.99286
343,700000,"2415 34th St SE, Washington, DC 20020",20020,4,4,38.85986,-76.95792
344,270000,"2655 Birney Pl SE APT 202, Washington, DC 20020",20020,3,2,38.85688,-76.9974
345,75000,"2100 Fendall St SE UNIT 3, Washington, DC 20020",20020,2,1,38.86366,-76.98015
347,295000,"2605 Douglass Rd SE #202, Washington, DC 20020",20020,2,2,38.85721,-76.988075
348,825900,"1334 T St SE, Washington, DC 20020",20020,4,4,38.86775,-76.9853
349,459900,"2802 Bruce Pl SE, Washington, DC 20020",20020,3,3,38.85633,-76.97519
350,724900,"1711 25th St SE, Washington, DC 20020",20020,4,3,38.86908,-76.9712
351,474990,"1652 Fort Dupont St SE, Washington, DC 20020",20020,4,2,38.86588,-76.94554
352,449999,"2326 Branch Ave SE, Washington, DC 20020",20020,2,2,38.86085,-76.95867
353,555000,"2218 Irving St SE, Washington, DC 20020",20020,5,4,38.85315,-76.97353
354,144900,"2301 Pitts Pl SE APT 103, Washington, DC 20020",20020,2,2,38.86033,-76.98525
355,325000,"1810 Minnesota Ave SE APT 102, Washington, DC 20020",20020,2,3,38.86986,-76.9785
356,510000,"2728 Knox Ter SE, Washington, DC 20020",20020,3,4,38.85286,-76.96698
357,525000,"1600 V St SE, Washington, DC 20020",20020,3,3,38.864643,-76.98228
358,307500,"1611 T St SE APT 3, Washington, DC 20020",20020,4,2,38.8671,-76.98169
359,649500,"2106 32nd St SE, Washington, DC 20020",20020,4,3,38.86435,-76.96124
360,450000,"1405 42nd Pl SE, Washington, DC 20020",20020,4,2,38.86871,-76.94337
361,339000,"1517 Fort Davis St SE, Washington, DC 20020",20020,2,1,38.86918,-76.94649
362,499000,"1602 V St SE, Washington, DC 20020",20020,3,3,38.864643,-76.98219
363,399900,"1612 Fort Dupont St SE, Washington, DC 20020",20020,3,2,38.86678,-76.94555
364,455000,"1416 22nd St SE #9, Washington, DC 20020",20020,2,3,38.87344,-76.97482
365,139000,"2636 Wade Rd SE APT 24, Washington, DC 20020",20020,2,1,38.858944,-76.99708
366,1599900,"3195 Westover Dr SE, Washington, DC 20020",20020,7,6,38.86782,-76.96345
367,549900,"1807 41st Pl SE, Washington, DC 20020",20020,5,3,38.86638,-76.94505
368,689900,"3429 Highwood Dr SE, Washington, DC 20020",20020,3,2,38.86943,-76.95602
369,875000,"3405 Carpenter St SE, Washington, DC 20020",20020,3,3,38.87031,-76.95668
370,250000,"6445 Luzon Ave NW #512, Washington, DC 20012",20012,2,1,38.96856,-77.03406
371,699999,"7624 9th St NW, Washington, DC 20012",20012,3,4,38.98244,-77.02567
372,1300000,"7250 15th Pl NW, Washington, DC 20012",20012,4,4,38.97804,-77.03539
373,1375000,"1425 Primrose Rd NW, Washington, DC 20012",20012,5,4,38.98789,-77.03333
374,1495000,"7119 16th St NW, Washington, DC 20012",20012,5,4,38.97653,-77.03594
375,549000,"7527 8th St NW, Washington, DC 20012",20012,3,3,38.98214,-77.02425
376,230000,"6445 Luzon Ave NW APT 214, Washington, DC 20012",20012,2,1,38.96851,-77.03421
377,825000,"6618 Eastern Ave NW, Washington, DC 20012",20012,4,2,38.9706,-77.00905
378,399000,"1103 Fern St NW #2, Washington, DC 20012",20012,2,2,38.97822,-77.02677
379,1195000,"1358 Juniper St NW, Washington, DC 20012",20012,4,4,38.98303,-77.03272
380,1399990,"6609 1st St NW, Washington, DC 20012",20012,6,4,38.97022,-77.01137
381,2750000,"8165 E Beach Dr NW, Washington, DC 20012",20012,4,5,38.99164,-77.04357
382,169900,"6445 Luzon Ave NW APT 104, Washington, DC 20012",20012,1,1,38.96864,-77.03372
383,490000,"6414 8th St NW, Washington, DC 20012",20012,3,1,38.96782,-77.02444
384,920000,"8028 Eastern Ave NW, Washington, DC 20012",20012,4,3,38.9875,-77.03085
385,427500,"6614 Eastern Ave NW, Washington, DC 20012",20012,3,1,38.9705,-77.00893
386,499900,"7700 Georgia Ave NW #304, Washington, DC 20012",20012,2,2,38.98282,-77.02681
387,575000,"67 Underwood St NW, Washington, DC 20012",20012,2,1,38.96838,-77.0111
388,975999,"6922 9th St NW, Washington, DC 20012",20012,4,4,38.97408,-77.02584
389,822900,"1323 Tewkesbury Pl NW, Washington, DC 20012",20012,4,3,38.96848,-77.03063
390,599995,"6416 Blair Rd NW, Washington, DC 20012",20012,3,2,38.96785,-77.01436
391,525000,"6424 7th St NW, Washington, DC 20012",20012,3,1,38.96822,-77.02269
392,360000,"7723 Alaska Ave NW APT 202, Washington, DC 20012",20012,2,2,38.98319,-77.02704
393,879990,"6842 General Davis Dr NW, Washington, DC 20012",20012,3,4,38.972748,-77.03134
394,659000,"609 Tewkesbury Pl NW, Washington, DC 20012",20012,5,2,38.96809,-77.02171
395,599000,"6540 Eastern Ave NE, Washington, DC 20012",20012,1,1,38.96955,-77.00829
396,267800,"7175 12th St NW UNIT 310, Washington, DC 20012",20012,1,1,38.977,-77.02769
397,929990,"1354 Main Dr NW, Washington, DC 20012",20012,3,4,38.972794,-77.03208
398,267800,"7175 12th St NW UNIT 509, Washington, DC 20012",20012,1,1,38.976902,-77.02773
399,399900,"7215 Georgia Ave NW #11A, Washington, DC 20012",20012,1,1,38.97781,-77.0262
400,310000,"7723 Alaska Ave NW UNIT 103, Washington, DC 20012",20012,1,1,38.98319,-77.02704
401,299900,"7700 Georgia Ave NW #5, Washington, DC 20012",20012,1,1,38.98282,-77.02681
402,619900,"7175 12th St NW UNIT 213, Washington, DC 20012",20012,2,2,38.97705,-77.02775
403,347000,"7723 Alaska Ave NW APT 302, Washington, DC 20012",20012,2,2,38.98319,-77.02704
404,579000,"1103 Fern St NW #303, Washington, DC 20012",20012,2,3,38.97822,-77.02677
405,599000,"1103 Fern St NW #304, Washington, DC 20012",20012,2,3,38.97822,-77.02677
406,699900,"7700 Georgia Ave NW #502, Washington, DC 20012",20012,2,2,38.98282,-77.02681
407,1064900,"7175 12th St NW #317, Washington, DC 20012",20012,3,3,38.97654,-77.02775
408,429000,"1103 Fern St NW #301, Washington, DC 20012",20012,2,1,38.97822,-77.02677
409,774900,"7175 12th St NW #302, Washington, DC 20012",20012,2,2,38.97654,-77.02775
410,965000,"5810 16th St NW, Washington, DC 20011",20011,4,3,38.960587,-77.03681
411,350000,"6204 New Hampshire Ave NE, Washington, DC 20011",20011,3,2,38.96546,-77.00311
412,649900,"4014 Georgia Ave NW #401, Washington, DC 20011",20011,2,2,38.940357,-77.02524
413,1295000,"4322 Blagden Ave NW, Washington, DC 20011",20011,3,2,38.94426,-77.04434
414,775000,"3910 8th St NW UNIT 2, Washington, DC 20011",20011,3,4,38.93926,-77.02347
415,899900,"420 Allison St NW, Washington, DC 20011",20011,4,4,38.94509,-77.01859
416,1995000,"4822 Blagden Ave NW, Washington, DC 20011",20011,4,5,38.94951,-77.03843
417,1499999,"1343 Taylor St NW, Washington, DC 20011",20011,5,4,38.94099,-77.03134
418,195000,"208 Farragut St NW APT 101, Washington, DC 20011",20011,1,1,38.95098,-77.013954
419,1100000,"1315 Gallatin St NW, Washington, DC 20011",20011,6,3,38.95209,-77.03105
420,449000,"1307 Longfellow St NW #9A, Washington, DC 20011",20011,2,2,38.9575,-77.03046
421,475000,"1307 Longfellow St NW #6A, Washington, DC 20011",20011,3,3,38.9575,-77.03046
422,574900,"103 Sheridan St NE, Washington, DC 20011",20011,4,3,38.96627,-77.00441
423,910000,"1353 Hamilton St NW, Washington, DC 20011",20011,4,3,38.95315,-77.0318
424,1165000,"4511 Iowa Ave NW #3, Washington, DC 20011",20011,3,5,38.94548,-77.02853
425,750000,"5808 3rd St NW, Washington, DC 20011",20011,3,3,38.96053,-77.01645
426,869900,"5019 9th St NW, Washington, DC 20011",20011,4,4,38.95152,-77.0253
427,800000,"24 Sheridan St NE, Washington, DC 20011",20011,3,3,38.96661,-77.0084
428,749000,"927 Delafield Pl NW, Washington, DC 20011",20011,3,3,38.94921,-77.02642
429,1550000,"1411 Decatur St NW, Washington, DC 20011",20011,7,5,38.94849,-77.03339
430,779000,"5007 4th St NW, Washington, DC 20011",20011,3,4,38.95139,-77.01727
431,1575000,"5315 16th St NW, Washington, DC 20011",20011,5,5,38.95398,-77.03604
432,1199000,"6300 13th St NW, Washington, DC 20011",20011,5,4,38.96633,-77.02988
433,1449900,"4214 14th St NW, Washington, DC 20011",20011,5,4,38.94239,-77.03302
434,749999,"108 Longfellow St NW, Washington, DC 20011",20011,4,4,38.95744,-77.01209
435,1197500,"5207 13th St NW, Washington, DC 20011",20011,4,4,38.95343,-77.02941
436,719000,"4331 Kansas Ave NW APT 1, Washington, DC 20011",20011,3,4,38.94376,-77.02422
437,509000,"5838 Eastern Ave NE, Washington, DC 20011",20011,3,3,38.96008,-76.99559
438,1200000,"1606 Longfellow St NW, Washington, DC 20011",20011,6,5,38.957523,-77.03725
439,1425000,"4012 5th St NW, Washington, DC 20011",20011,4,4,38.940395,-77.01927
440,595000,"627 Hamilton St NW, Washington, DC 20011",20011,2,2,38.95329,-77.02106
441,325000,"1307 Longfellow St NW #1, Washington, DC 20011",20011,2,1,38.9575,-77.03046
442,650000,"330 Missouri Ave NW, Washington, DC 20011",20011,3,2,38.957268,-77.01715
443,680000,"319 Nicholson St NE, Washington, DC 20011",20011,2,3,38.96034,-77.00209
444,299900,"3815 14th St NW #1, Washington, DC 20011",20011,1,1,38.93793,-77.03242
445,760000,"920 Longfellow St NW, Washington, DC 20011",20011,4,4,38.95715,-77.02676
446,750000,"4421 5th St NW, Washington, DC 20011",20011,3,3,38.94484,-77.01909
447,694999,"220 Gallatin St NW, Washington, DC 20011",20011,3,3,38.95206,-77.01432
448,1474999,"3029 Oregon Knolls Dr NW, Washington, DC 20015",20015,3,5,38.97554,-77.05343
449,1450000,"3219 Oliver St NW, Washington, DC 20015",20015,4,4,38.96694,-77.06545
450,3490000,"5366 27th St NW, Washington, DC 20015",20015,7,6,38.9602,-77.0565
451,2995000,"5416 Nevada Ave NW, Washington, DC 20015",20015,6,8,38.96171,-77.0699
452,1975000,"5320 28th St NW, Washington, DC 20015",20015,5,4,38.95913,-77.05783
453,647800,"5231 Connecticut Ave NW #202, Washington, DC 20015",20015,2,2,38.95875,-77.07165
454,1599999,"7030 Oregon Ave NW, Washington, DC 20015",20015,4,3,38.98432,-77.05356
455,1795000,"3211 Worthington St NW, Washington, DC 20015",20015,4,4,38.9752,-77.06083
456,2699999,"3705 Morrison St NW, Washington, DC 20015",20015,5,5,38.96418,-77.07236
457,2199000,"3727 Kanawha St NW, Washington, DC 20015",20015,5,4,38.96051,-77.07085
458,3650000,"3730 Northampton St NW, Washington, DC 20015",20015,7,6,38.96556,-77.07357
459,4595000,"3803 Jenifer St NW, Washington, DC 20015",20015,6,6,38.95923,-77.07515
460,1349900,"4301 Military Rd NW PENTHOUSE 4, Washington, DC 20015",20015,2,2,38.96129,-77.08444
461,1150000,"4301 Military Rd NW APT 604, Washington, DC 20015",20015,2,2,38.96129,-77.08444
462,389000,"5201 Wisconsin Ave NW #108, Washington, DC 20015",20015,1,1,38.95725,-77.08358
464,559900,"1615 Q St NW APT 407, Washington, DC 20009",20009,2,1,38.91134,-77.0375
465,485000,"1080 Wisconsin Ave NW APT 1015, Washington, DC 20007",20007,1,2,38.9048,-77.06297
466,1950000,"1652 33rd St NW, Washington, DC 20007",20007,4,4,38.91217,-77.06633
467,795000,"113 P St NW, Washington, DC 20001",20001,4,2,38.90988,-77.01281
469,675000,"3511 14th St NW UNIT 5, Washington, DC 20010",20010,2,2,38.93507,-77.03243
470,130000,"1440 W St NW #206, Washington, DC 20009",20009,1,1,38.91887,-77.03375
471,1250000,"2141 Wyoming Ave NW APT 21, Washington, DC 20008",20008,3,2,38.91744,-77.04926
472,4499000,"2446 Kalorama Rd NW, Washington, DC 20008",20008,5,6,38.91748,-77.05417
473,1339000,"3306 Ordway St NW, Washington, DC 20008",20008,2,2,38.93614,-77.0651
474,899000,"1426 Rhode Island Ave NW APT E, Washington, DC 20005",20005,2,3,38.90819,-77.03267
475,13500000,"1534 28th St NW, Washington, DC 20007",20007,8,9,38.91034,-77.05741
476,699900,"1736 18th St NW APT 203, Washington, DC 20009",20009,2,2,38.91363,-77.04199
478,1995000,"1857 California St NW, Washington, DC 20009",20009,4,4,38.91805,-77.043526
479,2499900,"2618 Woodley Pl NW, Washington, DC 20008",20008,5,6,38.92419,-77.05095
480,10500000,"3005 45th St NW, Washington, DC 20016",20016,8,13,38.92953,-77.08822
481,939000,"1504 10th St NW, Washington, DC 20001",20001,3,2,38.90991,-77.02618
484,1060000,"4414 35th St NW, Washington, DC 20008",20008,4,3,38.94679,-77.06743
486,895000,"401 T St NW, Washington, DC 20001",20001,3,2,38.91605,-77.01747
487,799000,"1319 Potomac Ave SE, Washington, DC 20003",20003,2,2,38.87913,-76.98768
488,10500000,"3150 S St NW, Washington, DC 20007",20007,4,7,38.90329,-77.0622
489,1895000,"642 N Carolina Ave SE, Washington, DC 20003",20003,4,4,38.88738,-76.997
490,749000,"1713 Q St NW #1, Washington, DC 20009",20009,2,2,38.91133,-77.03927
491,6995000,"2812 Woodland Dr NW, Washington, DC 20008",20008,7,8,38.9211,-77.05612
493,7500000,"1314 28th St NW, Washington, DC 20007",20007,7,7,38.90734,-77.05728
494,246600,"256 15th St SE #6, Washington, DC 20003",20003,1,1,38.88613,-76.9834
496,6250000,"2200 R St NW, Washington, DC 20008",20008,6,7,38.91242,-77.04903
497,755000,"1300 13th St NW APT 506, Washington, DC 20005",20005,2,2,38.90748,-77.03
498,1499777,"325 Constitution Ave NE, Washington, DC 20002",20002,3,4,38.89185,-77.00096
499,769500,"1225 13th St NW APT 312, Washington, DC 20005",20005,2,2,38.90659,-77.02919
500,434900,"801 Pennsylvania Ave NW APT 1014, Washington, DC 20004",20004,1,1,38.89452,-77.02353
501,3750000,"2032 Allen Pl NW, Washington, DC 20009",20009,5,4,38.92128,-77.04773
502,4450000,"17 2nd St NE, Washington, DC 20002",20002,3,4,38.89052,-77.00325
503,685000,"1117 10th St NW APT 602, Washington, DC 20001",20001,2,2,38.90468,-77.0258
504,649900,"1124 10th St NW, Washington, DC 20001",20001,2,2,38.90499,-77.02628
505,4400000,"1406 34th St NW, Washington, DC 20007",20007,6,6,38.90808,-77.06814
506,3500000,"2926 Garfield St NW, Washington, DC 20008",20008,5,5,38.92647,-77.05942
507,490000,"2750 14th St NW APT 608, Washington, DC 20009",20009,2,2,38.92524,-77.03265
508,2950000,"4430 Lowell St NW, Washington, DC 20016",20016,5,5,38.93213,-77.08768
510,9100000,"4701 Linnean Ave NW, Washington, DC 20008",20008,8,9,38.95115,-77.05804
512,700000,"631 D St NW APT 244, Washington, DC 20004",20004,2,3,38.89498,-77.02117
513,490000,"911 2nd St NE UNIT 103, Washington, DC 20002",20002,2,1,38.90178,-77.00331
514,5990000,"2601 Foxhall Rd NW, Washington, DC 20007",20007,6,8,38.92441,-77.08921
515,1245000,"1708 16th St NW #4, Washington, DC 20009",20009,2,2,38.913,-77.03696
516,2095000,"329 A St SE, Washington, DC 20003",20003,3,3,38.88852,-77.00078
517,470000,"919 Hamlin St NE, Washington, DC 20017",20017,3,2,38.92728,-76.99304
518,275000,"4870 Macarthur Blvd NW APT 5, Washington, DC 20007",20007,1,1,38.91762,-77.0972
519,5500000,"2900 K St NW SUITE 607, Washington, DC 20007",20007,5,6,38.9018,-77.05868
521,8195000,"2211 Massachusetts, Washington, DC 20008",20008,5,9,38.93646,-77.05916
522,1295000,"1725 20th St NW APT E1, Washington, DC 20009",20009,2,3,38.91337,-77.04461
523,499000,"1915 16th St NW APT 802, Washington, DC 20009",20009,2,1,38.91607,-77.03608
524,1585000,"2408 37th St NW, Washington, DC 20007",20007,7,4,38.9213,-77.07333
525,699000,"4201 Cathedral Ave NW APT 415W, Washington, DC 20016",20016,3,2,38.93118,-77.0818
526,649900,"745 3rd St SW #403, Washington, DC 20024",20024,2,2,38.88054,-77.01613
527,589000,"224 Elm St NW, Washington, DC 20001",20001,3,2,38.9174,-77.0155
528,699995,"338 Oakdale Pl NW, Washington, DC 20001",20001,3,2,38.91777,-77.01716
529,455000,"3912 Yuma St NW APT 2, Washington, DC 20016",20016,2,1,38.94609,-77.07794
530,749900,"1550 11th St NW APT 209, Washington, DC 20001",20001,2,2,38.91083,-77.02726
532,598500,"1444 Fairmont St NW #1, Washington, DC 20009",20009,2,2,38.92424,-77.03361
533,599000,"1212 M St NW APT 100, Washington, DC 20005",20005,2,2,38.9054,-77.02876
534,965000,"1317 Taylor St NE, Washington, DC 20017",20017,4,4,38.94072,-76.987045
535,729000,"1419 A St NE #1419, Washington, DC 20002",20002,2,3,38.89056,-76.98486
536,1775000,"2709 N N St NW #101, Washington, DC 20007",20007,3,3,38.90708,-77.05626
538,311000,"2220 20th St NW APT 57, Washington, DC 20009",20009,1,1,38.91881,-77.04633
540,550000,"1615 Q St NW APT 808, Washington, DC 20009",20009,2,1,38.911278,-77.03745
541,1385000,"1666 33rd St NW, Washington, DC 20007",20007,3,2,38.91246,-77.06635
543,495000,"1906 W Virginia Ave NE, Washington, DC 20002",20002,4,4,38.91165,-76.98469
544,549900,"1753 U St NW UNIT 1, Washington, DC 20009",20009,2,2,38.91722,-77.04024
545,699000,"908 8th St NE #1, Washington, DC 20002",20002,3,3,38.90163,-76.99525
546,559900,"1316 4th St SW, Washington, DC 20024",20024,4,2,38.874172,-77.0168
547,795000,"1837 Kalorama Rd NW APT A, Washington, DC 20009",20009,2,3,38.91986,-77.04317
548,484900,"912 F St NW APT 201, Washington, DC 20004",20004,1,1,38.89716,-77.02481
549,189000,"1330 Massachusetts Ave NW APT 420, Washington, DC 20005",20005,1,1,38.90492,-77.03108
551,1269000,"2817 18th St NW, Washington, DC 20009",20009,4,3,38.92594,-77.04128
552,455000,"4301 Massachusetts Ave NW APT 6012, Washington, DC 20016",20016,2,2,38.93674,-77.08316
553,659900,"720 13th St SE, Washington, DC 20003",20003,2,2,38.88077,-76.98809
554,899900,"1528 Monroe St NE, Washington, DC 20017",20017,4,3,38.93317,-76.98347
555,949900,"1003 4th St SE, Washington, DC 20003",20003,4,3,38.87821,-77.00079
558,599000,"1328 4th St SW, Washington, DC 20024",20024,4,2,38.87415,-77.01648
559,1399000,"643 A St SE, Washington, DC 20003",20003,2,3,38.8885,-76.9969
560,3750000,"635 Maryland Ave NE, Washington, DC 20002",20002,6,6,38.89415,-76.99729
561,329900,"539 Florida Ave NW #2, Washington, DC 20001",20001,1,1,38.91547,-77.0196
563,779000,"2913 26th St NE, Washington, DC 20018",20018,6,3,38.92702,-76.96991
565,999000,"2818 Connecticut Ave NW APT 16, Washington, DC 20008",20008,2,3,38.92714,-77.05397
566,7800000,"2824 Chain Bridge Rd NW, Washington, DC 20016",20016,5,5,38.92805,-77.09584
567,475000,"4101 Cathedral Ave NW APT 1206, Washington, DC 20016",20016,2,2,38.93052,-77.0795
568,295000,"414 Seward Sq SE APT 104, Washington, DC 20003",20003,1,1,38.88664,-77.00046
569,3495000,"3203 Cleveland Ave NW, Washington, DC 20008",20008,6,5,38.92802,-77.06355
570,799000,"1823 4th St NW, Washington, DC 20001",20001,3,3,38.91508,-77.01696
571,399000,"4101 Cathedral Ave NW APT 610, Washington, DC 20016",20016,2,2,38.93045,-77.07959
573,325000,"1731 Willard St NW APT 102, Washington, DC 20009",20009,1,2,38.91646,-77.0396
574,7499113,"3210 Scott Pl NW, Washington, DC 20007",20007,4,5,38.91195,-77.06456
575,9990000,"2727 Q St NW, Washington, DC 20007",20007,8,9,38.91079,-77.0566
576,750000,"4101 Cathedral Ave NW APT 1003, Washington, DC 20016",20016,3,2,38.93052,-77.0795
580,369999,"4600 Connecticut Ave NW APT 231, Washington, DC 20008",20008,2,2,38.95024,-77.06754
583,1395000,"1313 Quincy St NE, Washington, DC 20017",20017,4,3,38.93698,-76.9878
584,699999,"1828 13th St NW APT 1, Washington, DC 20009",20009,2,2,38.91498,-77.03003
585,1100000,"3299 K St NW APT 404, Washington, DC 20007",20007,2,2,38.9032,-77.06453
586,1100000,"410 G St SE, Washington, DC 20003",20003,2,2,38.88153,-77.00008
587,1899000,"3208 Volta Rear Alley Pl NW, Washington, DC 20007",20007,2,3,38.909428,-77.06496
588,765000,"1133 3rd St NE, Washington, DC 20002",20002,2,2,38.90456,-77.00178
589,1495000,"1629 Irving St NW, Washington, DC 20010",20010,4,4,38.92904,-77.03821
590,1250000,"1815 Kearny St NE, Washington, DC 20018",20018,4,4,38.930992,-76.97822
591,974000,"2328 Champlain St NW APT 424, Washington, DC 20009",20009,2,2,38.92073,-77.0411
592,2999000,"2918 P St NW, Washington, DC 20007",20007,4,5,38.90916,-77.05887
593,999999,"1825 S S St NW, Washington, DC 20009",20009,3,2,38.91434,-77.04249
594,269000,"3901 Cathedral Ave NW #41, Washington, DC 20016",20016,1,1,38.92941,-77.07748
595,739000,"2360 Champlain St NW #2.3, Washington, DC 20009",20009,2,2,38.92157,-77.04158
596,690000,"1025 1st St SE APT 811, Washington, DC 20003",20003,2,2,38.87819,-77.00605
597,349000,"4600 Connecticut Ave NW APT 105, Washington, DC 20008",20008,2,2,38.94985,-77.06708
599,1900000,"1319 34th St NW, Washington, DC 20007",20007,3,3,38.90743,-77.06762
600,1900000,"2149 Florida Ave NW, Washington, DC 20008",20008,4,4,38.91241,-77.04799
601,2349000,"3942 Highwood Ct NW, Washington, DC 20007",20007,4,5,38.91534,-77.07617
602,650000,"1233 Pennsylvania Ave SE, Washington, DC 20003",20003,2,2,38.88156,-76.98932
603,799900,"1253 Holbrook #B, Washington, DC 20002",20002,3,3,38.906765,-76.98528
604,4375000,"3115 Chain Bridge Rd NW, Washington, DC 20016",20016,4,7,38.93175,-77.09443
605,439900,"1684 Euclid St NW APT A, Washington, DC 20009",20009,1,1,38.92296,-77.03879
606,3200000,"2738 Chain Bridge Rd NW, Washington, DC 20016",20016,3,3,38.925835,-77.09648
607,2475000,"300 A St SE, Washington, DC 20003",20003,4,4,38.88875,-77.00185
608,281000,"2101 11th St NW UNIT 102, Washington, DC 20001",20001,1,1,38.918327,-77.02678
609,3390000,"3212 Porter St NW, Washington, DC 20008",20008,5,6,38.936974,-77.06527
610,975000,"1111 6th St NE, Washington, DC 20002",20002,3,4,38.904106,-76.99827
611,310000,"3001 Veazey Ter NW APT 1412, Washington, DC 20008",20008,1,1,38.94488,-77.06191
612,489777,"315 G St NE UNIT 206, Washington, DC 20002",20002,2,2,38.89865,-77.00139
613,1275000,"1622 6th St NW, Washington, DC 20001",20001,4,4,38.91182,-77.02018
614,414000,"700 7th St SW APT 809, Washington, DC 20024",20024,1,1,38.88015,-77.02156
615,874500,"1100 T St NW, Washington, DC 20009",20009,2,2,38.915424,-77.02735
616,375000,"3024 Tilden St NW APT 304C, Washington, DC 20008",20008,1,1,38.940536,-77.06337
618,7995000,"2701 Chesapeake St NW, Washington, DC 20008",20008,6,9,38.95136,-77.05478
619,425000,"1312 Massachusetts Ave NW APT 610, Washington, DC 20005",20005,1,1,38.90461,-77.03041
620,875000,"408 D St SE #B, Washington, DC 20003",20003,2,3,38.88447,-77.00008
621,550000,"3051 Idaho Ave NW APT 310, Washington, DC 20016",20016,2,1,38.93012,-77.07767
622,539990,"248 14th Pl NE, Washington, DC 20002",20002,3,2,38.89332,-76.98481
623,989000,"1431 New Jersey Ave NW, Washington, DC 20001",20001,3,3,38.90944,-77.01587
624,7750000,"3255 Prospect St NW UNIT 5, Washington, DC 20007",20007,3,4,38.90619,-77.06478
625,739900,"143 S St NW #1, Washington, DC 20001",20001,3,3,38.91433,-77.0135
626,749900,"2020 12th St NW APT 113, Washington, DC 20009",20009,2,2,38.91762,-77.02845
628,1795000,"1507 Caroline St NW, Washington, DC 20009",20009,3,3,38.91646,-77.03529
629,1000000,"1416 3rd St NW, Washington, DC 20001",20001,3,3,38.90631,-77.01525
630,1200000,"2100 11th St NW PENTHOUSE 5, Washington, DC 20001",20001,2,2,38.91831,-77.02739
631,1299000,"439 Washington #Q-2, Washington, DC 20001",20001,3,3,38.883682,-77.008835
634,699999,"1402 1st St SW, Washington, DC 20024",20024,3,3,38.87275,-77.0119
637,375000,"2829 Connecticut Ave NW APT 114, Washington, DC 20008",20008,1,1,38.92761,-77.05352
638,495000,"3900 Tunlaw Rd NW APT 604, Washington, DC 20007",20007,2,1,38.92531,-77.07787
639,679500,"1628 11th St NW UNIT 203, Washington, DC 20001",20001,1,1,38.91205,-77.02739
640,485000,"1714 Euclid St NW #4, Washington, DC 20009",20009,2,1,38.92295,-77.03951
641,474900,"1133 14th St NW APT 1006, Washington, DC 20005",20005,1,1,38.90461,-77.0316
642,2500000,"1751 T St NW, Washington, DC 20009",20009,5,5,38.91582,-77.04063
643,3325000,"3214 Reservoir Rd NW, Washington, DC 20007",20007,3,4,38.91248,-77.06486
644,4195000,"1746 S St NW, Washington, DC 20009",20009,5,5,38.91391,-77.04094
645,580000,"2750 14th St NW PENTHOUSE 8, Washington, DC 20009",20009,2,2,38.92524,-77.03265
646,4900000,"1633 16th St NW, Washington, DC 20009",20009,13,14,38.91247,-77.03611
647,2395000,"3614 Macomb St NW, Washington, DC 20016",20016,5,5,38.9335,-77.07109
649,524900,"2001 I St NE APT 9, Washington, DC 20002",20002,2,2,38.90228,-76.97492
650,3495000,"4811 W St NW, Washington, DC 20007",20007,5,6,38.91939,-77.09483
651,1595000,"1515 15th St NW APT 705, Washington, DC 20005",20005,2,2,38.90998,-77.03425
652,454900,"2240 Ontario Rd NW UNIT 2, Washington, DC 20009",20009,1,1,38.9197,-77.03979
653,499999,"2109 M St NE #8, Washington, DC 20002",20002,3,3,38.90546,-76.97368
654,549900,"2509 17th St NW APT 1, Washington, DC 20009",20009,2,1,38.92347,-77.03874
657,649777,"1662 Kramer St NE, Washington, DC 20002",20002,3,3,38.89794,-76.9807
658,899000,"251 15th St SE, Washington, DC 20003",20003,3,2,38.88571,-76.9839
660,1440000,"4316 Westover Pl NW, Washington, DC 20016",20016,3,4,38.93638,-77.08506
661,409990,"1000 New Jersey Ave SE APT 1104, Washington, DC 20003",20003,1,1,38.87801,-77.00433
663,489000,"910 M St NW APT 128, Washington, DC 20001",20001,1,2,38.90539,-77.02457
664,749000,"715 Delaware Ave SW #194, Washington, DC 20024",20024,3,2,38.88055,-77.01337
665,450000,"410 O St SW APT 106, Washington, DC 20024",20024,2,2,38.87325,-77.01828
666,1895000,"216 3rd St SE, Washington, DC 20003",20003,6,6,38.886436,-77.0018
667,850000,"615 Elliott St NE, Washington, DC 20002",20002,3,2,38.89786,-76.98628
668,2199900,"4358 Argyle Ter NW, Washington, DC 20011",20011,7,6,38.94419,-77.04232
671,950000,"259 Tennessee Ave NE, Washington, DC 20002",20002,2,3,38.89331,-76.98699
672,399000,"4740 Connecticut Ave NW APT 1016, Washington, DC 20008",20008,2,2,38.95177,-77.06854
673,550000,"4201 Cathedral Ave NW APT 1204E, Washington, DC 20016",20016,2,2,38.93118,-77.0818
674,5495000,"1633 31st St NW, Washington, DC 20007",20007,3,4,38.91142,-77.06214
676,3250000,"1314 Vermont Ave NW, Washington, DC 20005",20005,5,5,38.90806,-77.03095
677,510000,"440 12th St NE APT 309, Washington, DC 20002",20002,2,1,38.89527,-76.99062
678,7995000,"3313 O St NW, Washington, DC 20007",20007,6,7,38.90799,-77.0666
680,935000,"646 Acker Pl NE, Washington, DC 20002",20002,2,2,38.89686,-76.99713
681,1300000,"1111 W St NW APT 8, Washington, DC 20009",20009,3,3,38.9194,-77.0274
682,799900,"1238 Duncan Pl NE, Washington, DC 20002",20002,2,2,38.8956,-76.98894
684,9450000,"4526 Hawthorne St NW, Washington, DC 20016",20016,7,9,38.92876,-77.089775
685,745000,"124 O St SW, Washington, DC 20024",20024,3,2,38.87279,-77.0131
686,885000,"1425 Rhode Island Ave NW APT 22, Washington, DC 20005",20005,2,2,38.90867,-77.03287
687,2850000,"1425 33rd St NW, Washington, DC 20007",20007,3,4,38.90858,-77.06584
689,1675000,"1725 34th St NW, Washington, DC 20007",20007,3,3,38.91451,-77.06776
690,499000,"1425 4th St SW APT A704, Washington, DC 20024",20024,2,2,38.872692,-77.01876
691,550000,"222 4th St SE APT 1, Washington, DC 20003",20003,1,1,38.88693,-77.00036
692,749000,"1842 Mintwood Pl NW APT 7, Washington, DC 20009",20009,2,2,38.92123,-77.0446
693,549990,"204 Rhode Island Ave NW #2, Washington, DC 20001",20001,2,2,38.91461,-77.01447
694,925000,"311 9th St SE, Washington, DC 20003",20003,2,2,38.88559,-76.99404
695,1099999,"2012 13th St NW, Washington, DC 20009",20009,3,3,38.91743,-77.02995
696,415000,"1701 16th St NW APT 440, Washington, DC 20009",20009,1,1,38.91305,-77.03617
697,549900,"1253 Mount Olivet Rd NE #4, Washington, DC 20002",20002,3,4,38.90931,-76.98332
698,555000,"2531 Q St NW APT 305, Washington, DC 20007",20007,1,2,38.91081,-77.05467
699,955000,"1476 Harvard St NW, Washington, DC 20009",20009,3,3,38.92617,-77.03519
701,2599990,"2901 34th St NW, Washington, DC 20008",20008,7,6,38.92777,-77.06618
702,1195000,"1610 Beekman Pl NW APT A, Washington, DC 20009",20009,3,3,38.91961,-77.03684
703,1200000,"1134 10th St NW, Washington, DC 20001",20001,4,4,38.90529,-77.02621
704,3750000,"4853 Foxhall Cres NW, Washington, DC 20007",20007,5,6,38.92303,-77.09193
705,1195000,"1028 D St NE, Washington, DC 20002",20002,4,4,38.89497,-76.99182
706,600000,"21 16th St NE, Washington, DC 20002",20002,2,1,38.89046,-76.98196
707,1249000,"1522 10th St NW, Washington, DC 20001",20001,3,4,38.91038,-77.02624
708,1249900,"815 6th St SW, Washington, DC 20024",20024,3,3,38.87993,-77.02014
709,3250000,"2230 46th St NW, Washington, DC 20007",20007,5,6,38.92076,-77.09242
710,1300000,"1102 Bladensburg Rd NE, Washington, DC 20002",20002,2,3,38.90423,-76.98098
711,2650000,"509 E Capitol St NE, Washington, DC 20003",20003,5,4,38.88954,-76.99901
712,4495000,"2128 Wyoming Ave NW, Washington, DC 20008",20008,3,6,38.91724,-77.04804
713,799998,"1469 Meridian Pl NW, Washington, DC 20010",20010,4,3,38.9338,-77.0343
714,640000,"3615 13th St NW, Washington, DC 20010",20010,3,2,38.93508,-77.02952
715,635000,"1080 Wisconsin Ave NW APT 305, Washington, DC 20007",20007,1,2,38.90475,-77.0628
716,494900,"730 11th St NE APT 101, Washington, DC 20002",20002,2,2,38.899704,-76.99172
718,3290000,"2426 Tracy Pl NW, Washington, DC 20008",20008,4,5,38.9162,-77.05481
719,3200000,"4523 Garrison St NW, Washington, DC 20016",20016,7,7,38.956024,-77.08982
720,879000,"1393 F St NE, Washington, DC 20002",20002,3,3,38.89714,-76.98577
721,669900,"1819 1st St NW #A, Washington, DC 20001",20001,2,3,38.91471,-77.01191
722,280000,"3205 Georgia Ave NW UNIT 307, Washington, DC 20010",20010,2,1,38.93024,-77.02315
723,649999,"430 Ava Way NE, Washington, DC 20017",20017,3,4,38.94979,-76.9999
724,3199000,"4708 Warren St NW, Washington, DC 20016",20016,6,7,38.94456,-77.09384
725,1250000,"1015 33rd St NW APT 408, Washington, DC 20007",20007,2,3,38.90387,-77.06566
726,685000,"4510 S Dakota Ave NE, Washington, DC 20017",20017,3,3,38.94464,-76.98657
727,399000,"1661 Crescent Pl NW APT 409, Washington, DC 20009",20009,1,1,38.920948,-77.03797
728,114000,"1301 Delaware #N-220, Washington, DC 20024",20024,1,1,38.8742,-77.01545
729,309000,"1420 N St NW #502, Washington, DC 20005",20005,1,1,38.907,-77.03302
730,599900,"1211 Van St SE #907, Washington, DC 20003",20003,2,1,38.87591,-77.00855
731,749000,"2225 Shepherd St NE, Washington, DC 20018",20018,4,3,38.93945,-76.97271
732,379000,"4114 Davis Pl NW APT 316, Washington, DC 20007",20007,1,1,38.92287,-77.0816
733,499000,"2750 14th St NW APT 508, Washington, DC 20009",20009,2,2,38.92524,-77.03265
735,785750,"714 Kentucky Ave SE, Washington, DC 20003",20003,3,2,38.88094,-76.98252
736,1249000,"647 Morton Pl NE, Washington, DC 20002",20002,4,5,38.90426,-76.99691
737,2850000,"2621 Woodley Pl NW, Washington, DC 20008",20008,6,6,38.92453,-77.05053
738,369000,"1815 A St SE APT 102, Washington, DC 20003",20003,2,1,38.88861,-76.97835
739,2695000,"2611 Klingle Rd NW, Washington, DC 20008",20008,5,6,38.93432,-77.05345
740,1000000,"909 L St NE, Washington, DC 20002",20002,4,4,38.90358,-76.99329
741,2500000,"1758 Swann St NW, Washington, DC 20009",20009,4,5,38.91469,-77.04117
742,484900,"1006 Florida Ave NE #302, Washington, DC 20002",20002,2,2,38.90401,-76.9925
743,4250000,"4853 Rockwood Pkwy NW, Washington, DC 20016",20016,5,6,38.93371,-77.0962
745,769990,"510 21st St NE, Washington, DC 20002",20002,4,3,38.89651,-76.97476
747,899000,"2025 Hillyer Pl NW UNIT 1, Washington, DC 20009",20009,2,3,38.91206,-77.04615
748,449417,"1401 Columbia Rd NW APT 417, Washington, DC 20009",20009,2,1,38.92781,-77.03296
750,1695000,"2513 Cliffbourne Pl NW, Washington, DC 20009",20009,6,6,38.922417,-77.04466
751,770000,"2328 Champlain St NW APT 310, Washington, DC 20009",20009,2,2,38.92077,-77.04133
755,399999,"2801 Adams Mill Rd NW APT 406, Washington, DC 20009",20009,1,1,38.9256,-77.04424
756,1049990,"1400 Church St NW APT 405, Washington, DC 20005",20005,2,2,38.91033,-77.0324
757,2350000,"1454 Belmont St NW APT 18, Washington, DC 20009",20009,3,3,38.9203,-77.03376
758,675000,"1025 1st St SE APT 311, Washington, DC 20003",20003,2,2,38.87819,-77.00605
759,670900,"2809 Sherman Ave NW APT 1, Washington, DC 20001",20001,3,4,38.92623,-77.02558
761,1330000,"2153 California St NW APT 402, Washington, DC 20008",20008,2,2,38.91641,-77.04898
764,926000,"1312 C St NE, Washington, DC 20002",20002,3,4,38.89376,-76.98773
765,649900,"129 Rhode Island Ave NE, Washington, DC 20002",20002,3,2,38.91792,-77.00565
766,1250000,"1225 10th St NW #3, Washington, DC 20001",20001,2,3,38.90667,-77.02579
767,749900,"1429 Parkwood Pl NW, Washington, DC 20010",20010,5,3,38.93604,-77.03375
768,779000,"422 Irving St NW, Washington, DC 20010",20010,3,3,38.92934,-77.0186
769,4350000,"4220 Van Ness St NW, Washington, DC 20016",20016,7,9,38.94295,-77.08312
770,2235000,"326 E St NE, Washington, DC 20002",20002,4,3,38.89636,-77.00101
771,574900,"1248 Faraday Pl NE, Washington, DC 20017",20017,3,3,38.95113,-76.98803
772,2220000,"3712 R St NW, Washington, DC 20007",20007,5,6,38.91333,-77.07326
773,725000,"5001 11th St NE, Washington, DC 20017",20017,3,3,38.95039,-76.99136
774,1125000,"771 10th St SE, Washington, DC 20003",20003,3,3,38.87948,-76.99287
775,995000,"2022 10th St NW, Washington, DC 20001",20001,2,3,38.9177,-77.0262
777,249900,"4866 Macarthur Blvd NW APT 2, Washington, DC 20007",20007,1,1,38.91755,-77.09705
778,1269000,"1305-1315 30th St NW #101, Washington, DC 20007",20007,3,4,38.90715,-77.05902
779,1750000,"4728 Massachusetts Ave NW, Washington, DC 20016",20016,4,4,38.9437,-77.09437
780,1099900,"1827 S St NW #3, Washington, DC 20009",20009,2,2,38.91434,-77.04255
781,995000,"1077 30th St NW #705, Washington, DC 20007",20007,2,2,38.9036,-77.05869
782,1895000,"4537 38th St NW, Washington, DC 20016",20016,4,4,38.94938,-77.07435
783,494000,"225 Cromwell Ter NE, Washington, DC 20002",20002,3,2,38.92275,-77.00262
784,375000,"1321 Fairmont St NW APT 1, Washington, DC 20009",20009,2,1,38.92503,-77.03067
785,975000,"925 4th St SE, Washington, DC 20003",20003,4,3,38.87863,-77.00079
786,470000,"1620 Corcoran St NW APT D, Washington, DC 20009",20009,1,1,38.91175,-77.03768
787,495000,"3219 Wisconsin Ave NW UNIT 202, Washington, DC 20016",20016,1,1,38.9333,-77.07207
788,850000,"511 F St NE, Washington, DC 20002",20002,3,3,38.89714,-76.99906
789,14500000,"2040 S St NW, Washington, DC 20009",20009,12,8,38.91393,-77.04634
790,950000,"607 G St SE, Washington, DC 20003",20003,3,2,38.88108,-76.99796
791,399000,"1145 Summit St NE, Washington, DC 20002",20002,3,2,38.90464,-76.97582
792,257900,"1625 Eckington Pl NE APT 507, Washington, DC 20002",20002,1,1,38.912083,-77.00396
793,939000,"1309 E St SE #9, Washington, DC 20003",20003,3,4,38.88226,-76.98755
794,319900,"2803 Cortland Pl NW APT 4, Washington, DC 20008",20008,1,1,38.93039,-77.05778
795,619900,"231 S St NW, Washington, DC 20002",20002,3,2,38.91382,-77.00244
796,239000,"4840 Macarthur Blvd NW SUITE 206, Washington, DC 20007",20007,1,1,38.91713,-77.09675
797,1374500,"2301 Champlain St NW APT 408, Washington, DC 20009",20009,2,3,38.920364,-77.04077
798,1210000,"2125 14th Street NW #327- WAREHOUSES, Washington, DC 20009",20009,3,3,38.9186,-77.0311
799,1399000,"1631 13th St NW APT 2, Washington, DC 20009",20009,3,2,38.91205,-77.02938
800,550000,"1732 Montello Ave NE #7, Washington, DC 20002",20002,2,3,38.9098,-76.98552
801,1499900,"622 G St NE, Washington, DC 20002",20002,4,4,38.89911,-76.99766
802,3895000,"1722 Q St NW, Washington, DC 20009",20009,6,5,38.91094,-77.03964
803,549900,"1625 Eckington Pl NE PENTHOUSE 308, Washington, DC 20002",20002,2,2,38.91202,-77.00361
804,2800000,"1735 Fraser Ct NW, Washington, DC 20009",20009,6,4,38.91366,-77.04404
806,874900,"2517 Ontario Rd NW #7, Washington, DC 20009",20009,3,2,38.92355,-77.03997
807,469900,"800 4th St SW APT N421, Washington, DC 20024",20024,2,1,38.880295,-77.01714
808,399000,"3901 25th Pl NE, Washington, DC 20018",20018,3,1,38.93717,-76.97094
809,424900,"1034 6th St NE APT 301, Washington, DC 20002",20002,2,1,38.90346,-76.99872
810,274000,"3725 12th St NE APT 102, Washington, DC 20017",20017,2,1,38.93542,-76.99086
811,499500,"3818 22nd St NE, Washington, DC 20018",20018,3,1,38.93699,-76.97441
813,799900,"45 Sutton Sq SW UNIT 905, Washington, DC 20024",20024,2,1,38.87903,-77.0246
814,799000,"3916 13th St NW #2, Washington, DC 20011",20011,3,3,38.93926,-77.02999
815,2000000,"428 11th St NE, Washington, DC 20002",20002,4,4,38.89563,-76.99179
816,585000,"1715 15th St NW APT E, Washington, DC 20009",20009,2,1,38.91342,-77.03427
817,999000,"1700 Euclid St NW UNIT B6, Washington, DC 20009",20009,2,2,38.92307,-77.0391
818,369550,"660 Morton Pl NE APT 4, Washington, DC 20002",20002,1,1,38.90451,-76.99647
819,764900,"405 Warner St NW, Washington, DC 20001",20001,2,2,38.91201,-77.01765
820,1599900,"926 3rd St SE, Washington, DC 20003",20003,4,4,38.87854,-77.00183
821,1500000,"1446 Monroe St NW, Washington, DC 20010",20010,5,4,38.93153,-77.03427
822,709000,"414 Marietta Pl NW, Washington, DC 20011",20011,4,2,38.95929,-77.01878
823,859000,"4100 Cathedral Ave NW #609, Washington, DC 20016",20016,2,3,38.92951,-77.08022
824,335000,"1495 Newton St NW APT 303, Washington, DC 20010",20010,2,1,38.9331,-77.03513
826,675000,"755 Fairmont St NW #2, Washington, DC 20001",20001,2,2,38.92521,-77.0246
828,2900000,"625 Massachusetts Ave NE, Washington, DC 20002",20002,5,5,38.8925,-76.99764
829,399000,"3817 14th St NW UNIT 1, Washington, DC 20011",20011,2,1,38.93798,-77.03247
830,710000,"630 Totten Pl NE, Washington, DC 20017",20017,3,4,38.948128,-76.99795
831,2199900,"1112 Rhode Island Ave NW, Washington, DC 20005",20005,4,5,38.91004,-77.02758
832,1225000,"442 442.5 R St NW #A, Washington, DC 20001",20001,3,3,38.91261,-77.02219
833,725000,"1831 California St NW APT 30, Washington, DC 20009",20009,1,1,38.91805,-77.0426
834,985000,"306 L St SE, Washington, DC 20003",20003,4,2,38.87773,-77.00167
837,1795000,"1013 O St NW, Washington, DC 20001",20001,3,3,38.9088,-77.02659
838,2100000,"1805 19th St NW, Washington, DC 20009",20009,6,3,38.91434,-77.04306
839,512000,"631 D St NW APT 1235, Washington, DC 20004",20004,1,1,38.89498,-77.02117
840,285000,"2604 Tunlaw Rd NW APT 3, Washington, DC 20007",20007,1,1,38.92364,-77.07531
841,849000,"520 N St SW #S511, Washington, DC 20024",20024,2,2,38.874653,-77.01836
842,799900,"1527 Buchanan St NW, Washington, DC 20011",20011,3,2,38.94631,-77.03563
843,369900,"1245 4th St SW #E-100, Washington, DC 20024",20024,1,1,38.875492,-77.01799
844,525000,"3619 Georgia Ave NW #101, Washington, DC 20010",20010,2,2,38.93503,-77.02385
845,389000,"4740 Connecticut Ave NW APT 205, Washington, DC 20008",20008,2,2,38.95177,-77.06854
847,620000,"2015 Gales St NE, Washington, DC 20002",20002,2,2,38.8972,-76.97522
848,2200000,"1933 47th St NW, Washington, DC 20007",20007,4,3,38.91549,-77.09096
849,1000000,"410 D St SE #A, Washington, DC 20003",20003,2,3,38.88447,-77.00004
850,699000,"3211 Wisconsin Ave NW UNIT 101, Washington, DC 20016",20016,1,2,38.93293,-77.0721
851,765000,"1247 Maryland Ave NE, Washington, DC 20002",20002,2,2,38.89775,-76.98853
852,924700,"631 D St NW APT 1139, Washington, DC 20004",20004,3,3,38.89498,-77.02117
855,799000,"315 Douglas St NE, Washington, DC 20002",20002,3,4,38.92326,-77.00133
856,2375000,"3524 Reservoir Rd NW, Washington, DC 20007",20007,5,4,38.91248,-77.07006
857,639900,"2101 11th St NW UNIT 203, Washington, DC 20001",20001,2,2,38.91835,-77.02679
858,450000,"555 Massachusetts Ave NW APT 1307, Washington, DC 20001",20001,1,1,38.90102,-77.01863
859,639900,"1027 Irving St NE, Washington, DC 20017",20017,4,2,38.92837,-76.99153
860,689900,"1423 Holbrook St NE, Washington, DC 20002",20002,3,3,38.90385,-76.98274
862,2899000,"2120 S St NW, Washington, DC 20008",20008,4,4,38.91383,-77.04823
863,730000,"1610 Montello Ave NE, Washington, DC 20002",20002,3,4,38.90747,-76.98722
864,629000,"910 M St NW APT 525, Washington, DC 20001",20001,2,2,38.90539,-77.02457
866,7495000,"3300 Nebraska Ave NW, Washington, DC 20016",20016,4,9,38.93406,-77.09038
867,475000,"3546 13th St NW APT 1, Washington, DC 20010",20010,2,2,38.93364,-77.03002
868,3499900,"3623 R St NW, Washington, DC 20007",20007,3,5,38.91378,-77.07181
869,1775000,"2709 N #N, Washington, DC 20007",20007,3,3,38.90713,-77.05626
870,283356,"1111 Orren St NE UNIT 404, Washington, DC 20002",20002,2,1,38.90144,-76.98632
871,3398000,"2127 Leroy Pl NW, Washington, DC 20008",20008,4,6,38.91569,-77.0478
872,295000,"2939 Van Ness St NW APT 927, Washington, DC 20008",20008,1,1,38.94445,-77.06007
873,6700000,"601 Wharf St SW UNIT 1001, Washington, DC 20024",20024,3,5,38.87685,-77.02151
874,2088000,"88 V St SW PENTHOUSE 1, Washington, DC 20024",20024,2,3,38.8645,-77.01182
875,1500000,"1504 Delafield Pl NW, Washington, DC 20011",20011,7,4,38.94881,-77.03513
876,3750000,"4707 Woodway Ln NW, Washington, DC 20016",20016,5,6,38.93729,-77.09352
879,1150000,"748 7th St SE, Washington, DC 20003",20003,3,3,38.87979,-76.99587
880,2395000,"330 Maryland Ave NE, Washington, DC 20002",20002,6,6,38.89331,-77.00107
881,579999,"912 F St NW APT 502, Washington, DC 20004",20004,1,2,38.89716,-77.02481
882,615000,"2301 Champlain St NW APT T04, Washington, DC 20009",20009,2,2,38.9208,-77.04087
883,360000,"700 7th St SW APT 512, Washington, DC 20024",20024,1,1,38.88065,-77.02094
885,2499000,"151 N Carolina Ave SE, Washington, DC 20003",20003,8,6,38.88408,-77.00387
886,3999999,"1860 19th St NW, Washington, DC 20009",20009,7,4,38.91518,-77.04376
887,2049000,"3901 New Hampshire Ave NW, Washington, DC 20011",20011,6,5,38.938942,-77.02215
888,1989000,"4331 44th St NW, Washington, DC 20016",20016,6,4,38.946136,-77.086075
890,540000,"2626 10th St NE, Washington, DC 20018",20018,3,2,38.92387,-76.9927
891,299900,"1101 3rd St SW APT 312, Washington, DC 20024",20024,1,1,38.87711,-77.01572
892,3400000,"2825 29th Pl NW, Washington, DC 20008",20008,5,5,38.92495,-77.05807
893,995000,"1238 Florida Ave NE, Washington, DC 20002",20002,3,3,38.90249,-76.98899
895,389900,"4014 Georgia Ave NW #202, Washington, DC 20011",20011,2,1,38.940323,-77.02522
899,6550000,"3065 University Ter NW, Washington, DC 20016",20016,6,7,38.93172,-77.09611
900,999000,"439 Washington #Q-1, Washington, DC 20001",20001,3,3,38.910435,-77.01773
901,560000,"1000 New Jersey Ave SE APT 106, Washington, DC 20003",20003,2,2,38.87801,-77.00433
904,499000,"611 Kennedy St NW #9, Washington, DC 20011",20011,3,2,38.9566,-77.02143
906,3295000,"3528 Reservoir Rd NW, Washington, DC 20007",20007,5,5,38.91249,-77.07012
907,670000,"842 Madison St NW #A, Washington, DC 20011",20011,4,4,38.95822,-77.02567
908,679999,"637 Oglethorpe St NE, Washington, DC 20011",20011,4,3,38.96078,-76.99815
909,649999,"1118 Neal St NE #2, Washington, DC 20002",20002,4,3,38.90547,-76.99057
910,1250000,"4000 Cathedral Ave NW #344-345B, Washington, DC 20016",20016,4,4,38.927635,-77.08028
911,595000,"475 K St NW UNIT 1223, Washington, DC 20001",20001,2,1,38.90279,-77.01831
912,504999,"820 Oglethorpe St NE, Washington, DC 20011",20011,3,2,38.95841,-76.99402
913,474900,"701 Pennsylvania Ave #1014, Washington, DC 20004",20004,1,1,38.89442,-77.02238
914,1189000,"1606 A St NE, Washington, DC 20002",20002,4,4,38.89117,-76.98182
915,1799000,"2801 New Mexico Ave NW PENTHOUSE 15, Washington, DC 20007",20007,2,4,38.92643,-77.08107
917,539999,"16 17th St NE APT 121, Washington, DC 20002",20002,2,2,38.89042,-76.98116
918,349900,"5507 7th St NW #1, Washington, DC 20011",20011,2,2,38.95669,-77.02208
919,991000,"6231 N Dakota Ave NW, Washington, DC 20011",20011,5,4,38.96579,-77.0153
920,640000,"811 4th St NW UNIT 720, Washington, DC 20001",20001,2,2,38.90097,-77.01592
921,669900,"1010 Massachusetts Ave NW PENTHOUSE 109, Washington, DC 20001",20001,2,1,38.90347,-77.02609
925,839000,"1001 L St NW #702, Washington, DC 20001",20001,2,2,38.90441,-77.02624
926,485000,"777 7th St NW APT 914, Washington, DC 20001",20001,2,2,38.8995,-77.02173
927,599000,"2214 11th St NW #1, Washington, DC 20001",20001,2,2,38.91963,-77.0273
928,297700,"2920 Georgia Ave NW UNIT 304, Washington, DC 20001",20001,2,2,38.927654,-77.02354
929,1879900,"2117 1st St NW, Washington, DC 20001",20001,7,7,38.91864,-77.01182
930,675000,"2625 Sherman Ave NW UNIT A, Washington, DC 20001",20001,3,3,38.9246,-77.02531
931,525000,"809 6th St NW APT 14, Washington, DC 20001",20001,2,2,38.90026,-77.01957
932,439900,"2250 11th St NW #108, Washington, DC 20001",20001,1,1,38.92048,-77.02733
933,1159900,"2707 1st Street Nw Chatfield LOT 936, Washington, DC 20001",20001,4,3,38.92614,-77.01197
934,419998,"2920 Georgia Ave NW UNIT 301, Washington, DC 20001",20001,1,1,38.92769,-77.02342
935,639900,"2725 11th St NW, Washington, DC 20001",20001,3,3,38.92555,-77.02674
936,549900,"1827 S St NW #1, Washington, DC 20009",20009,1,1,38.91434,-77.04255
938,495000,"1901 Columbia Rd NW APT 101, Washington, DC 20009",20009,1,1,38.91887,-77.04525
939,470000,"1401 R St NW #310, Washington, DC 20009",20009,1,1,38.91277,-77.03223
940,705000,"361 N St SW, Washington, DC 20024",20024,2,3,38.875416,-77.01623
941,2699000,"1803 37th St NW, Washington, DC 20007",20007,5,6,38.91469,-77.07249
942,1725000,"1696 32nd St NW, Washington, DC 20007",20007,3,3,38.91307,-77.06438
943,1995000,"1452 Foxhall Rd NW, Washington, DC 20007",20007,3,5,38.90863,-77.08284
945,895000,"3219 Wisconsin Ave NW UNIT 101, Washington, DC 20016",20016,2,3,38.9333,-77.07207
946,389300,"3022 Porter St NW APT 302, Washington, DC 20008",20008,2,1,38.93675,-77.06238
947,1150000,"418 7th St SE APT 401, Washington, DC 20003",20003,2,3,38.88322,-76.99592
948,625000,"1837 Corcoran St NW #21, Washington, DC 20009",20009,1,1,38.91202,-77.04271
949,399995,"4004 8th St NE APT 2, Washington, DC 20017",20017,2,1,38.89037,-77.03196
950,328000,"2238 Ontario Rd NW #3, Washington, DC 20009",20009,1,1,38.91966,-77.03976
951,4995000,"2924 Cleveland Ave NW, Washington, DC 20008",20008,8,9,38.923725,-77.0589
952,8290000,"601 Wharf St SW PENTHOUSE 5, Washington, DC 20024",20024,3,5,38.876827,-77.02153
953,629000,"1740 New Hampshire Ave NW APT D, Washington, DC 20009",20009,1,2,38.91394,-77.03973
954,249900,"3618 Connecticut Ave NW APT 101, Washington, DC 20008",20008,1,1,38.93752,-77.06011
955,249900,"3601 Wisconsin Ave NW APT 206, Washington, DC 20016",20016,1,1,38.93765,-77.07365
958,645000,"1518 Massachusetts Ave SE, Washington, DC 20003",20003,2,2,38.88718,-76.983
959,449000,"1239 Vermont Ave NW APT 902, Washington, DC 20005",20005,2,2,38.90702,-77.03071
961,499000,"1101 3rd St SW APT 415, Washington, DC 20024",20024,2,1,38.877197,-77.01553
962,239900,"1300 N St NW APT 413, Washington, DC 20005",20005,1,1,38.90707,-77.02992
963,620000,"1150 K St NW APT 408, Washington, DC 20005",20005,2,2,38.90221,-77.02784
964,299900,"1521 Kingman Pl NW APT 1, Washington, DC 20005",20005,1,1,38.91037,-77.03067
965,420000,"1239 Vermont Ave NW APT 1003, Washington, DC 20005",20005,1,1,38.90702,-77.03071
966,569000,"1441 Rhode Island Ave NW APT 111, Washington, DC 20005",20005,1,1,38.908493,-77.03374
967,1995500,"1515 15th St NW APT 222, Washington, DC 20005",20005,3,3,38.90998,-77.03425
968,1199900,"1402 12th St NW UNIT 10, Washington, DC 20005",20005,2,2,38.908817,-77.02824
969,3195000,"1515 15th St NW APT 708, Washington, DC 20005",20005,2,2,38.90979,-77.034294
970,580000,"1427 Rhode Island Ave NW UNIT 202, Washington, DC 20005",20005,1,1,38.90872,-77.03315
972,438900,"1150 K St NW APT 707, Washington, DC 20005",20005,1,1,38.90221,-77.02784
973,249000,"1125 12th St NW APT 2, Washington, DC 20005",20005,1,1,38.90498,-77.0278
974,1299000,"1310 Vermont Ave NW #4, Washington, DC 20005",20005,2,2,38.90794,-77.03098
975,459000,"1133 14th St NW APT 202, Washington, DC 20005",20005,1,1,38.90461,-77.0316
976,400000,"1212 M St NW APT 201, Washington, DC 20005",20005,1,2,38.9054,-77.02876
977,645000,"1529 14th St NW APT 202, Washington, DC 20005",20005,1,2,38.91076,-77.03157
978,549900,"1311 13th St NW #407, Washington, DC 20005",20005,1,1,38.90775,-77.02915
979,3500000,"23 Logan Cir NW, Washington, DC 20005",20005,6,5,38.90925,-77.02881
980,445000,"1101 L St NW APT 603, Washington, DC 20005",20005,1,1,38.90444,-77.02735
984,319000,"3328 D St SE, Washington, DC 20019",20019,4,1,38.884613,-76.958725
988,819000,"3921 W St NW APT 1, Washington, DC 20007",20007,2,2,38.9194,-77.07819
989,599000,"2737 Devonshire Pl NW APT 26, Washington, DC 20008",20008,2,2,38.93164,-77.05684
990,749900,"1354 Meridian Pl NW #1, Washington, DC 20010",20010,3,3,38.93296,-77.03163
992,349999,"3497 Summit Ct NE #3497, Washington, DC 20018",20018,3,1,38.92798,-76.95942
994,385000,"4600 Connecticut Ave NW APT 309, Washington, DC 20008",20008,2,2,38.94985,-77.06708
997,1579990,"102 9th St SE, Washington, DC 20003",20003,4,4,38.88811,-76.99353
999,1199900,"1827 S St NW #4, Washington, DC 20009",20009,2,2,38.91434,-77.04255
1000,2685000,"3253 P St NW, Washington, DC 20007",20007,2,3,38.90898,-77.06507
1002,2585000,"2816 P St NW, Washington, DC 20007",20007,6,5,38.90918,-77.05781
1003,559900,"1727 R St NW APT 402, Washington, DC 20009",20009,1,1,38.91285,-77.03954
1004,799900,"1473 Monroe St NW, Washington, DC 20010",20010,3,2,38.93226,-77.0351
1005,400000,"1763 Columbia Rd NW APT 407, Washington, DC 20009",20009,1,1,38.92369,-77.04157
1006,1999900,"1827 S St NW #5, Washington, DC 20009",20009,3,3,38.91434,-77.04255
1010,229000,"2615 4th St NE APT B3, Washington, DC 20002",20002,1,1,38.92401,-77.00021
1011,840000,"1515 Isherwood St NE, Washington, DC 20002",20002,8,4,38.89527,-76.98296
1012,3300000,"601 Massachusetts Ave NE, Washington, DC 20002",20002,8,6,38.89278,-76.99826
1014,445000,"2500 Q St NW APT 444, Washington, DC 20007",20007,1,1,38.91038,-77.05216
1015,429900,"1740 18th St NW APT 202, Washington, DC 20009",20009,1,1,38.91377,-77.04201
1017,795000,"3900 Watson Pl NW UNIT 7AH, Washington, DC 20016",20016,3,4,38.92811,-77.07814
1018,129000,"1440 W St NW #205, Washington, DC 20009",20009,1,1,38.91887,-77.03375
1019,1650000,"3213 O St NW, Washington, DC 20007",20007,4,2,38.90799,-77.06417
1020,1149900,"3009 17th St NE, Washington, DC 20018",20018,4,4,38.92886,-76.9806
1022,775000,"3607 Jamison St NE, Washington, DC 20018",20018,5,5,38.924465,-76.95437
1023,629900,"3714 Foote St NE, Washington, DC 20019",20019,4,3,38.89958,-76.95182
1027,930000,"616 E St NW #312, Washington, DC 20004",20004,2,3,38.89596,-77.02127
1028,635000,"2226 Otis St NE, Washington, DC 20018",20018,3,2,38.93528,-76.97292
1029,469000,"1708 16th NW #2, Washington, DC 20009",20009,1,1,38.913,-77.03696
1031,749900,"1644 Park Rd NW #4, Washington, DC 20010",20010,2,2,38.93194,-77.03774
1032,799000,"1270 Owen Pl NE, Washington, DC 20002",20002,3,2,38.90526,-76.98563
1033,315000,"3010 Wisconsin Ave NW APT 206, Washington, DC 20016",20016,1,1,38.92967,-77.07353
1034,650000,"1030 4th St NE, Washington, DC 20002",20002,2,1,38.90354,-77.0008
1035,999000,"503 Groff Ct NE, Washington, DC 20002",20002,3,3,38.8965,-77.0015
1036,800000,"525 Water St SW UNIT 319, Washington, DC 20024",20024,2,2,38.87585,-77.0206
1037,6900000,"3255 Prospect St NW #4, Washington, DC 20007",20007,3,4,38.90617,-77.06472
1039,2000000,"2709 N St NW #103, Washington, DC 20007",20007,2,3,38.90708,-77.05626
1040,684000,"315 19th St NE, Washington, DC 20002",20002,3,2,38.89404,-76.97697
1042,2895000,"1673 34th St NW, Washington, DC 20007",20007,6,5,38.91247,-77.06763
1043,1350000,"3108 16th St NW, Washington, DC 20010",20010,4,5,38.92897,-77.03686
1044,879000,"1510 6th St NW #1, Washington, DC 20001",20001,3,3,38.91014,-77.02025
1046,1499000,"1631 13th St NW APT 3, Washington, DC 20009",20009,3,2,38.91205,-77.02938
1047,499900,"560 N St SW APT N8912, Washington, DC 20024",20024,1,1,38.87443,-77.01933
1048,510000,"2220 20th St NW APT 45, Washington, DC 20009",20009,1,1,38.91882,-77.04625
1049,525000,"2001 16th St NW APT 206, Washington, DC 20009",20009,2,2,38.91783,-77.03615
1050,649900,"517 Montana Ave NE #401, Washington, DC 20017",20017,3,3,38.92505,-76.99913
1051,499000,"1308 L St SE UNIT 1, Washington, DC 20003",20003,2,2,38.877743,-76.98781
1052,519000,"245 15th St SE APT 204, Washington, DC 20003",20003,2,2,38.88586,-76.98388
1053,795000,"1628 D St SE, Washington, DC 20003",20003,2,2,38.88436,-76.98129
1055,399000,"2613 22nd St NE, Washington, DC 20018",20018,3,1,38.92418,-76.97391
1057,250000,"2720 Wisconsin Ave NW APT 302, Washington, DC 20007",20007,1,1,38.925705,-77.07337
1058,4750000,"2906 N St NW, Washington, DC 20007",20007,5,4,38.90671,-77.05851
1060,799000,"2411 20th St NW UNIT 9, Washington, DC 20009",20009,2,2,38.92132,-77.04668
1062,499000,"700 7th St SW APT 701, Washington, DC 20024",20024,2,2,38.88065,-77.02094
1066,1349000,"3141 24th St NE, Washington, DC 20018",20018,6,5,38.93054,-76.97189
1068,4500000,"2605 31st St NW, Washington, DC 20008",20008,5,5,38.92375,-77.06101
1069,1795000,"2744 Woodley Pl NW, Washington, DC 20008",20008,4,3,38.92667,-77.0524
1071,312500,"2939 Van Ness St NW APT 733, Washington, DC 20008",20008,1,1,38.94434,-77.06006
1072,579500,"1901 Wyoming Ave NW APT 75, Washington, DC 20009",20009,1,1,38.91859,-77.0455
1073,475000,"1002 Rhode Island Ave NE #4, Washington, DC 20018",20018,2,2,38.92281,-76.99207
1074,1095000,"1342 Irving St NW, Washington, DC 20010",20010,6,2,38.9284,-77.03116
1075,1725000,"1823 1/2 16th St NW, Washington, DC 20009",20009,3,4,38.915,-77.03621
1076,725000,"2224 13th St NW, Washington, DC 20009",20009,2,2,38.91984,-77.03
1078,999900,"136 Q St NW FLOOR 2, Washington, DC 20001",20001,3,3,38.91093,-77.0134
1079,624999,"440 NW R St NW #2, Washington, DC 20001",20001,2,2,38.91238,-77.01818
1080,1449000,"1241 G St NE, Washington, DC 20002",20002,4,4,38.89873,-76.98887
1082,471500,"2818 Connecticut Ave NW APT 11, Washington, DC 20008",20008,1,1,38.92704,-77.05406
1083,1049000,"2928 Carlton Ave NE, Washington, DC 20018",20018,6,4,38.92932,-76.96802
1084,1800000,"45 Sutton Sq SW UNIT 603, Washington, DC 20024",20024,2,2,38.87954,-77.02438
1085,849000,"1240 Columbia Rd NW #1, Washington, DC 20009",20009,4,3,38.92744,-77.02862
1086,799000,"27 17th St SE, Washington, DC 20003",20003,3,3,38.88904,-76.98101
1088,968500,"902 8th St NE, Washington, DC 20002",20002,3,4,38.9015,-76.99525
1089,549900,"910 M St NW APT 1105, Washington, DC 20001",20001,1,1,38.90539,-77.02457
1090,675000,"700 7th St SW APT 526, Washington, DC 20024",20024,3,2,38.88029,-77.02153
1091,599000,"3927 14th St NW #3, Washington, DC 20011",20011,2,2,38.93943,-77.03245
1092,1249000,"3604 11th St NW, Washington, DC 20010",20010,3,5,38.93478,-77.02872
1094,549999,"1730 L St NE #1, Washington, DC 20002",20002,2,2,38.90391,-76.97883
1099,695000,"801 Pennsylvania Ave NW APT 1220, Washington, DC 20004",20004,1,1,38.89452,-77.02353
1100,3290000,"3115 Normanstone Ter NW, Washington, DC 20008",20008,5,6,38.92401,-77.06271
1101,424900,"2001 I St NE UNIT 5, Washington, DC 20002",20002,2,2,38.90228,-76.97492
1102,775000,"203 17th St SE, Washington, DC 20003",20003,2,2,38.88739,-76.98102
1103,925000,"3251 Prospect St NW APT 409, Washington, DC 20007",20007,1,1,38.90618,-77.06491
1104,297700,"1421 Spring Rd NW #101, Washington, DC 20010",20010,2,1,38.93756,-77.03388
1106,418000,"1000 New Jersey Ave SE APT 824, Washington, DC 20003",20003,1,1,38.87801,-77.00433
1109,379700,"2122 California St NW UNIT 354, Washington, DC 20008",20008,1,1,38.91622,-77.04745
1110,1290000,"53 Quincy Pl NE, Washington, DC 20002",20002,4,4,38.91166,-77.00698
1111,102500,"1311 Delaware Ave SW APT S328, Washington, DC 20024",20024,1,1,38.87344,-77.01545
1112,1299000,"621 5th St NE, Washington, DC 20002",20002,5,6,38.89796,-76.99925
1113,719000,"14 P St NW #401, Washington, DC 20001",20001,3,2,38.9095,-77.00942
1117,645000,"2001 12th St NW APT 306, Washington, DC 20009",20009,2,2,38.917362,-77.02758
1118,4295000,"3101 Cathedral Ave NW, Washington, DC 20008",20008,7,9,38.92925,-77.06167
1119,570000,"41 Michigan Ave NE, Washington, DC 20002",20002,3,2,38.92659,-77.00746
1120,1195000,"1340 Jackson St NE, Washington, DC 20017",20017,5,4,38.92997,-76.98722
1121,469975,"3314 Ames St NE, Washington, DC 20019",20019,2,1,38.8908,-76.95968
1122,396500,"201 34th St NE, Washington, DC 20019",20019,2,2,38.8921,-76.95729
1123,634888,"355 I St SW APT 601, Washington, DC 20024",20024,2,2,38.87955,-77.01655
1124,564900,"2517 Ontario St NW #4, Washington, DC 20009",20009,2,1,38.923576,-77.040016
1125,379000,"1328 Bryant St NE #202, Washington, DC 20018",20018,2,2,38.92135,-76.98777
1127,390000,"1328 Bryant St NE APT 3, Washington, DC 20018",20018,2,2,38.92135,-76.98777
1128,2995000,"1604 13th St NW, Washington, DC 20009",20009,4,3,38.91162,-77.02991
1130,492500,"18 O St NW APT B, Washington, DC 20001",20001,2,2,38.90838,-77.00982
1131,15000000,"3210 R St NW, Washington, DC 20007",20007,5,8,38.91349,-77.06453
1132,1615000,"1555 33rd St NW, Washington, DC 20007",20007,2,3,38.91025,-77.06587
1133,7995000,"2011 Foxhall Rd NW, Washington, DC 20007",20007,7,9,38.917355,-77.08858
1134,6495000,"4849 Foxhall Cres NW, Washington, DC 20007",20007,6,6,38.92306,-77.092445
1135,630000,"3220 Grace St NW UNIT 1, Washington, DC 20007",20007,1,1,38.90388,-77.06382
1136,3495000,"1416 34th St NW, Washington, DC 20007",20007,4,4,38.90834,-77.06805
1137,380000,"1801 16th St NW APT 305, Washington, DC 20009",20009,2,2,38.91437,-77.036
1139,8195000,"2211 Massachusetts Ave NW, Washington, DC 20008",20008,5,9,38.9121,-77.04939
1140,684000,"23 O St SW #23, Washington, DC 20024",20024,3,3,38.87318,-77.0104
1141,630000,"1415 Downing St NE, Washington, DC 20018",20018,3,3,38.92158,-76.98397
1142,400000,"3001 Veazey Ter NW APT 120, Washington, DC 20008",20008,2,2,38.94491,-77.06184
1143,485000,"1435 Euclid St NW APT 1, Washington, DC 20009",20009,2,2,38.9238,-77.03333
1144,469000,"2721 13th St NW APT 1, Washington, DC 20009",20009,2,2,38.92532,-77.02943
1145,675000,"3712 24th St NE, Washington, DC 20018",20018,3,2,38.9356,-76.97239
1147,425000,"3000 Tilden St NW APT 103I, Washington, DC 20008",20008,2,1,38.94072,-77.06198
1148,2799900,"4525 Grant Rd NW, Washington, DC 20016",20016,6,7,38.94831,-77.07608
1149,497000,"2735 31st Pl NE #2735, Washington, DC 20018",20018,3,4,38.92493,-76.96125
1150,310000,"2707 31st Pl NE #2707, Washington, DC 20018",20018,3,3,38.92459,-76.96156
1152,498000,"1930 New Hampshire Ave NW #1, Washington, DC 20009",20009,2,2,38.91636,-77.03758
1154,1399900,"3521 35th St NW, Washington, DC 20016",20016,4,3,38.93707,-77.0684
1155,425000,"2228 13th St NW #1, Washington, DC 20009",20009,2,2,38.919952,-77.02996
1156,1825000,"2906 Ordway St NW, Washington, DC 20008",20008,3,3,38.93543,-77.06028
1157,2099999,"2930 Newark St NW, Washington, DC 20008",20008,5,3,38.93398,-77.05867
1159,650000,"2008 16th St NW APT 300, Washington, DC 20009",20009,2,2,38.91749,-77.03692
1160,399900,"2829 Connecticut Ave NW APT 401, Washington, DC 20008",20008,1,1,38.92761,-77.05352
1162,260000,"105 6th St SE APT B1, Washington, DC 20003",20003,1,1,38.88854,-76.99862
1163,1835000,"144 Tennessee Ave NE, Washington, DC 20002",20002,5,5,38.89149,-76.98928
1164,320000,"3900 Cathedral Ave NW APT 301A, Washington, DC 20016",20016,1,1,38.92871,-77.07903
1165,3650000,"440 New Jersey Ave SE, Washington, DC 20003",20003,7,6,38.88398,-77.0065
1167,660000,"1300 4th St SE #315, Washington, DC 20003",20003,2,2,38.8746,-77.00034
1168,1090000,"3102 S Dakota Ave NE, Washington, DC 20018",20018,4,4,38.92986,-76.97086
1170,825000,"2404 2nd St NE, Washington, DC 20002",20002,3,4,38.92153,-77.00374
1171,589900,"355 I St SW APT 209, Washington, DC 20024",20024,2,2,38.87955,-77.01655
1173,450000,"912 F St NW APT 101, Washington, DC 20004",20004,1,1,38.89716,-77.02481
1174,3399999,"3541 Ordway St NW, Washington, DC 20016",20016,5,6,38.9366,-77.0704
1175,479999,"1725 Lanier Pl NW APT 6D, Washington, DC 20009",20009,2,1,38.92596,-77.04062
1176,450000,"3505 24th St NE, Washington, DC 20018",20018,2,2,38.9334,-76.97192
1178,850000,"629 Harvard St NW, Washington, DC 20001",20001,4,4,38.927387,-77.02211
1179,725000,"847 20th St NE, Washington, DC 20002",20002,4,4,38.90145,-76.97486
1180,1199000,"913 Emerson St NW, Washington, DC 20011",20011,5,4,38.94994,-77.02627
1181,4995000,"3150 S St NW, Washington, DC 20007",20007,4,4,38.90329,-77.0622
1182,329000,"777 7th St NW APT 608, Washington, DC 20001",20001,1,1,38.8995,-77.02173
1183,624400,"26 N St SW, Washington, DC 20024",20024,2,2,38.87445,-77.0104
1184,797000,"2869 28th St NW #203, Washington, DC 20008",20008,2,2,38.92831,-77.05626
1185,1350000,"902 Westminster St NW, Washington, DC 20001",20001,5,5,38.91463,-77.02421
1186,799900,"1357 Emerald St NE, Washington, DC 20002",20002,3,2,38.89654,-76.98651
1187,580000,"4725 3rd Pl NW APT 4, Washington, DC 20011",20011,2,2,38.94822,-77.01632
1189,1350000,"1524 Allison St NW, Washington, DC 20011",20011,5,5,38.94482,-77.03576
1190,299000,"3320 M St SE, Washington, DC 20019",20019,3,1,38.87592,-76.95929
1192,349900,"3435 Summit Ct NE #3435, Washington, DC 20018",20018,2,1,38.92853,-76.95851
1196,425000,"749 Gallatin St NE, Washington, DC 20017",20017,2,1,38.95207,-76.99464
1199,425000,"4430 Foote St NE, Washington, DC 20019",20019,3,2,38.8977,-76.937675
1200,720000,"3808 Hansberry Ct NE, Washington, DC 20018",20018,4,4,38.92294,-76.95089
1204,749999,"3401 Massachusetts Ave SE, Washington, DC 20019",20019,5,3,38.876,-76.95726
1205,465000,"4022 Blaine St NE, Washington, DC 20019",20019,3,2,38.89209,-76.94612
1211,119500,"4800 C St SE APT 101, Washington, DC 20019",20019,2,1,38.88596,-76.93396
1213,350000,"4502 Brooks St NE, Washington, DC 20019",20019,2,1,38.89339,-76.93724
1219,599000,"5120 B St SE, Washington, DC 20019",20019,4,4,38.88646,-76.92734
1220,419900,"4307 G St SE, Washington, DC 20019",20019,3,2,38.88034,-76.94181
1226,499900,"1319 49th St NE, Washington, DC 20019",20019,3,3,38.90784,-76.93135
1228,280000,"5027 Benning Rd SE, Washington, DC 20019",20019,4,2,38.878094,-76.93139
1231,768000,"1376 Sheridan St NW, Washington, DC 20011",20011,5,4,38.96592,-77.03273
1232,774900,"5217 New Hampshire Ave NW, Washington, DC 20011",20011,3,4,38.95394,-77.01089
1234,679000,"816 Madison St NW, Washington, DC 20011",20011,3,4,38.95825,-77.02483
1235,450000,"5008 Bass Pl SE, Washington, DC 20019",20019,3,2,38.8861,-76.92988
1241,119999,"514 Ridge Rd SE APT 311, Washington, DC 20019",20019,2,1,38.88261,-76.94638
1242,525000,"456 Burbank St SE, Washington, DC 20019",20019,3,3,38.88368,-76.94285
1244,470000,"5019 Kimi Gray Ct SE, Washington, DC 20019",20019,3,3,38.88199,-76.93031
1248,729900,"727 Roxboro Pl NW, Washington, DC 20011",20011,3,4,38.9657,-77.02367
1249,184900,"4922 Jay St NE, Washington, DC 20019",20019,2,1,38.90192,-76.93031
1252,499999,"4112 Gault Pl NE, Washington, DC 20019",20019,4,3,38.89924,-76.94375
1254,374900,"44 Burns St NE, Washington, DC 20019",20019,3,1,38.89104,-76.95063
1256,500000,"4414 Edson Pl NE, Washington, DC 20019",20019,4,2,38.89698,-76.93857
1258,599900,"800 46th St NE, Washington, DC 20019",20019,3,3,38.90011,-76.93683
1259,450000,"4525 Edson Pl NE, Washington, DC 20019",20019,3,2,38.89652,-76.93623
1260,899000,"5310 8th St NW, Washington, DC 20011",20011,3,3,38.9546,-77.0242
1261,999900,"5425 4th St NW, Washington, DC 20011",20011,4,5,38.95623,-77.01756
1262,1795000,"1334 Wallach Pl NW, Washington, DC 20009",20009,4,4,38.91616,-77.03086
1263,629900,"1818 M St NE, Washington, DC 20002",20002,3,3,38.90585,-76.97736
1264,469000,"804 Taylor St NW APT 303, Washington, DC 20011",20011,2,2,38.94071,-77.02377
1267,1229999,"2125 14th St NW #323WAREHOUSE, Washington, DC 20009",20009,3,3,38.91859,-77.03163
1268,899000,"121 Webster St NW, Washington, DC 20011",20011,4,2,38.944626,-77.01354
1269,1925000,"634 Lexington Pl NE, Washington, DC 20002",20002,4,5,38.89565,-76.99717
1270,1099000,"1203 Linden Pl NE, Washington, DC 20002",20002,3,3,38.89943,-76.98981
1272,469000,"2039 New Hampshire Ave NW #504, Washington, DC 20009",20009,1,1,38.91788,-77.03537
1275,350000,"1825 Florida Ave NW APT 30, Washington, DC 20009",20009,1,1,38.91645,-77.04233
1276,999000,"1119 I St NE, Washington, DC 20002",20002,4,4,38.90115,-76.99079
1278,700000,"1212 Wylie St NE, Washington, DC 20002",20002,2,3,38.90089,-76.98961
1279,849000,"810 O St NW APT 505, Washington, DC 20001",20001,2,2,38.90831,-77.02367
1281,739900,"1422 Half St SW, Washington, DC 20024",20024,2,2,38.87234,-77.01039
1282,449500,"3371 Blaine St NE, Washington, DC 20019",20019,2,2,38.89183,-76.95806
1283,595000,"315 12th St NE APT 202, Washington, DC 20002",20002,2,2,38.89412,-76.9899
1284,545000,"1431 C St NE, Washington, DC 20002",20002,3,1,38.893433,-76.98469
1285,699950,"2816 30th St NE, Washington, DC 20018",20018,4,4,38.92735,-76.96513
1286,595000,"912 F St NW APT 901, Washington, DC 20004",20004,1,2,38.89716,-77.02481
1288,364900,"3614 12th St NE #5, Washington, DC 20017",20017,1,1,38.93399,-76.99137
1289,324900,"1006 Florida Ave NE #C102, Washington, DC 20002",20002,1,1,38.90401,-76.9925
1290,555000,"718 Jackson St NE #3, Washington, DC 20017",20017,3,2,38.9296,-76.99543
1291,715000,"817 L St SE, Washington, DC 20003",20003,2,2,38.87736,-76.99426
1292,499000,"4326 H St SE, Washington, DC 20019",20019,3,2,38.87889,-76.94031
1293,985000,"1010 8th St NE #1, Washington, DC 20002",20002,3,3,38.90299,-76.99521
1295,699900,"1519 1st St SW, Washington, DC 20024",20024,2,2,38.87151,-77.0124
1296,799000,"33 Bryant St NW #1, Washington, DC 20001",20001,3,3,38.92155,-77.01027
1297,999500,"643 I St NE, Washington, DC 20002",20002,4,4,38.9011,-76.99657
1298,649900,"4543 S Dakota Ave NE, Washington, DC 20017",20017,3,2,38.94555,-76.98678
1299,4500000,"601 Wharf St SW PENTHOUSE 4, Washington, DC 20024",20024,3,4,38.87684,-77.021515
1300,784900,"4930 7th St NW, Washington, DC 20011",20011,4,4,38.95076,-77.02227
1301,350000,"2301 Ontario Rd NW #101, Washington, DC 20009",20009,1,1,38.92018,-77.03948
1302,1049999,"1227 Girard St NE, Washington, DC 20017",20017,3,4,38.92644,-76.98944
1303,439000,"4548 C St SE, Washington, DC 20019",20019,3,2,38.886826,-76.93766
1304,920000,"1242 Neal St NE, Washington, DC 20002",20002,4,4,38.90408,-76.9873
1305,515000,"1828 Capitol Ave NE #1828-1, Washington, DC 20002",20002,3,2,38.91135,-76.98578
1306,399999,"3808 Bay Ln SE, Washington, DC 20019",20019,3,4,38.88753,-76.95014
1307,449000,"700 7th St SW APT 732, Washington, DC 20024",20024,2,1,38.88065,-77.02094
1308,570265,"1738 Glick Ct NW, Washington, DC 20001",20001,1,2,38.913807,-77.02035
1309,995000,"709 Rock Creek Church Rd NW #2, Washington, DC 20010",20010,2,3,38.93709,-77.02194
1310,449999,"428 Evarts St NE APT 2, Washington, DC 20017",20017,2,2,38.92471,-76.99935
1311,579900,"1000 New Jersey Ave SE APT 419, Washington, DC 20003",20003,2,2,38.87801,-77.00433
1315,1550000,"1219 Delafield Pl NW, Washington, DC 20011",20011,5,5,38.949253,-77.02889
1317,549000,"5221 C St SE, Washington, DC 20019",20019,4,3,38.88454,-76.92648
1318,349500,"4243 Dix St NE, Washington, DC 20019",20019,3,2,38.8948,-76.94025
1321,549999,"514 45th St NE, Washington, DC 20019",20019,4,2,38.8959,-76.93798
1322,212530,"512 47th St NE, Washington, DC 20019",20019,5,2,38.89553,-76.93513
1324,6250000,"4601 Cathedral Ave NW, Washington, DC 20016",20016,5,8,38.93055,-77.09152
1325,1349500,"5111 Albemarle St NW, Washington, DC 20016",20016,4,4,38.94809,-77.10057
1329,3999900,"5017 Klingle St NW, Washington, DC 20016",20016,6,6,38.9318,-77.10059
1330,1799000,"2852 Arizona Ave NW, Washington, DC 20016",20016,6,4,38.929,-77.1015
1335,1300000,"4823 43rd St NW, Washington, DC 20016",20016,3,4,38.95309,-77.08349
1336,1795000,"4509 Butterworth Pl NW, Washington, DC 20016",20016,4,4,38.94904,-77.08916
1342,1899000,"5035 Fulton St NW, Washington, DC 20016",20016,4,4,38.92488,-77.09991
1347,342900,"5112 Macarthur Blvd NW APT 111, Washington, DC 20016",20016,2,1,38.92521,-77.10219
1354,6996995,"3001 Foxhall Rd NW, Washington, DC 20016",20016,6,8,38.92912,-77.09049
1361,2800000,"2905 Arizona Ave NW, Washington, DC 20016",20016,5,5,38.92891,-77.10086
1367,5300000,"5431 Potomac Ave NW, Washington, DC 20016",20016,5,5,38.92789,-77.10905
1368,1999999,"4636 Verplanck Pl NW, Washington, DC 20016",20016,5,5,38.94383,-77.09189
1373,2695000,"5138 Cathedral Ave NW, Washington, DC 20016",20016,6,5,38.930065,-77.10481
1374,2995000,"5019 Klingle St NW, Washington, DC 20016",20016,5,6,38.9318,-77.10081
1376,4760000,"5545 Potomac Ave NW, Washington, DC 20016",20016,5,6,38.92986,-77.11026
1393,2690796,"Beech W Plan, PCI - 20815",20815,5,6,38.97465,-77.090195
1398,1650000,"2808 Battery Pl NW, Washington, DC 20016",20016,3,4,38.926327,-77.09862
1422,2700000,"3303 Water St NW UNIT 6E, Washington, DC 20007",20007,2,3,38.90396,-77.06635
1456,1075000,"1011 Otis Pl NW, Washington, DC 20010",20010,4,5,38.93475,-77.02763
1457,475000,"4312 Polk St NE, Washington, DC 20019",20019,3,2,38.90981,-76.94143
1458,379000,"1102 Holbrook Ter NE APT 3, Washington, DC 20002",20002,2,1,38.908257,-76.98782
1459,699999,"1657 Montello Ave NE #1, Washington, DC 20002",20002,3,3,38.90832,-76.98594
1460,679000,"1000 New Jersey Ave SE APT 619, Washington, DC 20003",20003,2,2,38.87801,-77.00433
1461,648000,"4401 Ord St NE, Washington, DC 20019",20019,6,4,38.90835,-76.94003
1463,1599000,"1925 Lawrence St NE, Washington, DC 20018",20018,6,5,38.93191,-76.97721
1464,734900,"2308 E E St NE, Washington, DC 20002",20002,3,4,38.89628,-76.97327
1466,999999,"2207 Rand Pl NE, Washington, DC 20002",20002,6,4,38.91314,-76.97354
1467,430000,"701 Quincy St NE #1, Washington, DC 20017",20017,2,2,38.93799,-76.99487
1468,979900,"2127 California St NW APT 201, Washington, DC 20008",20008,2,3,38.91663,-77.04824
1469,949999,"2202 Lawrence St NE, Washington, DC 20018",20018,6,5,38.93234,-76.97383
1471,1270000,"113 Rhode Island Ave NE, Washington, DC 20002",20002,5,5,38.91761,-77.00606
1472,399900,"1245 4th St SW APT E403, Washington, DC 20024",20024,1,1,38.875343,-77.01788
1473,1499000,"1631 13th 3 Washington #3, Washington, DC 20009",20009,3,2,38.919853,-77.03722
1474,875000,"637 Orleans Pl NE, Washington, DC 20002",20002,2,3,38.90478,-76.99711
1475,775000,"1025 1st St SE APT 505, Washington, DC 20003",20003,2,2,38.87819,-77.00605
1476,1450000,"1761 Harvard St NW, Washington, DC 20009",20009,2,2,38.927456,-77.04168
1478,739990,"1348 Monroe St NW UNIT B, Washington, DC 20010",20010,2,3,38.93161,-77.03138
1479,430000,"1391 Pennsylvania Ave SE UNIT 310, Washington, DC 20003",20003,1,1,38.88035,-76.9866
1481,585250,"1758 Lang Pl NE, Washington, DC 20002",20002,3,2,38.904354,-76.97733
1482,369900,"490 M St SW APT W403, Washington, DC 20024",20024,1,1,38.87567,-77.0194
1483,595000,"1000 New Jersey Ave SE PENTHOUSE 15, Washington, DC 20003",20003,2,2,38.87824,-77.00437
1484,360000,"2535 13th St NW APT 303, Washington, DC 20009",20009,1,1,38.92333,-77.0294
1485,275000,"4527 Foote St NE, Washington, DC 20019",20019,3,1,38.89724,-76.93655
1488,639000,"14 P St NW #403, Washington, DC 20001",20001,2,2,38.9095,-77.00942
1490,424999,"5105 Lee St NE, Washington, DC 20019",20019,7,6,38.90447,-76.9272
1506,685000,"532 13th St NE, Washington, DC 20002",20002,3,2,38.89682,-76.98855
1507,649999,"4404 1/2 Lee St NE, Washington, DC 20019",20019,6,6,38.905247,-76.938126
1508,800000,"159 Randolph Pl NW, Washington, DC 20001",20001,4,2,38.91352,-77.01384
1509,585000,"701 Lamont St NW APT 31, Washington, DC 20010",20010,2,2,38.93128,-77.02412
1510,850000,"915 Lawrence St NE, Washington, DC 20017",20017,4,3,38.93122,-76.99286
1511,1099000,"1332 Belmont St NW APT 301, Washington, DC 20009",20009,2,2,38.92094,-77.03096
1512,1299000,"304 T St NW, Washington, DC 20001",20001,5,4,38.91577,-77.01624
1513,2750000,"1901 Wyoming Ave NW APT 61, Washington, DC 20009",20009,3,3,38.91859,-77.0455
1514,1150000,"748 7th St SE APT C, Washington, DC 20003",20003,3,3,38.87984,-76.99597
1516,437000,"4220 Southern Ave SE, Washington, DC 20019",20019,3,2,38.86771,-76.94201
1536,749900,"Armistead Plan, Hensley at Eisenhower Pointe",22304,3,2,38.80389,-77.11899
1540,4195000,"3025 University Ter NW, Washington, DC 20016",20016,7,7,38.9302,-77.09718
1578,799000,"1714 Euclid St NW #8, Washington, DC 20009",20009,2,2,38.92295,-77.03951
1597,2444982,"Moorland - CC Plan, PCI - 20814",20814,5,6,38.99006,-77.11541
1603,3459999,"Iroquois Plan, PCI - 20814",20814,6,6,38.99006,-77.11541
1608,2495655,"Plainview Plan, PCI - 20816",20816,6,5,38.959015,-77.12165
1613,2659984,"Rosemont Contemporary Plan, PCI - 20816",20816,5,4,38.959015,-77.12165
1705,2690796,"Beech W Plan, PCI - 20814",20814,5,6,38.99006,-77.11541
1707,2794982,"Macon Plan, PCI - 20816",20816,5,5,38.959015,-77.12165
1712,2417799,"Sycamore Plan, PCI -20016",20817,5,4,38.980145,-77.11481
1714,2816565,"Hopewood Plan, PCI - 20816",20816,5,4,38.959015,-77.12165
1718,3659984,"Iroquois Plan, PCI -20016",20817,6,6,38.980145,-77.11481
1721,2800000,"Greystone Plan, PCI - 20852",20817,4,5,39.04403,-77.130455
1724,1429900,"Layton Plan, Amalyn Origin Collection",20817,3,3,39.01747,-77.1433
1725,2855766,"Metro G Plan, PCI - 20815",20815,5,5,38.97465,-77.090195
1726,2379985,"Rosemont X Plan, PCI - 20815",20815,5,4,38.97465,-77.090195
1727,3209444,"Rosa Plan, PCI - 20815",20815,5,5,38.97465,-77.090195
1728,2804554,"Upland Plan, PCI - 20815",20815,5,5,38.97465,-77.090195
1730,2399655,"Westport Plan, PCI - 20814",20814,5,6,38.99006,-77.11541
1731,2689987,"Halbert Plan, PCI - 20814",20814,4,5,38.99006,-77.11541
1732,2796055,"Kreeger B - 4922 Earlston Drive Plan, PCI - 20816",20816,5,5,38.959015,-77.12165
1733,2555655,"Plainview Plan, PCI - 20815",20815,6,5,38.97465,-77.090195
1734,4644982,"Birkhaven Plan, PCI - 20815",20815,5,5,38.97465,-77.090195
1735,3664666,"Park Plan, PCI -20016",20817,5,5,38.980145,-77.11481
1736,2860000,"Greystone Plan, PCI - 20815",20815,4,5,38.97465,-77.090195
1739,2476665,"Metro Plan, PCI - 20815",20815,5,5,38.97465,-77.090195
1740,2883655,"Rockmere Plan, PCI - 20814",20814,5,5,38.99006,-77.11541
1741,2586555,"Pine Plan, PCI - 20815",20815,5,5,38.97465,-77.090195
1742,2221986,"Rosemont Contemporary Plan, PCI - 20816",20816,5,4,38.959015,-77.12165
1743,2199982,"Ariel Plan, PCI - 20814",20814,5,5,38.99006,-77.11541
1744,2895094,"Hawthorne - 5210 Andover Road Plan, PCI - 20815",20815,5,5,38.97465,-77.090195
1745,2787444,"Appleton S - 4812 Chevy Chase Blvd. Plan, PCI - 20815",20815,5,5,38.97465,-77.090195
1746,2760000,"B Brookview Plan, PCI - 20816",20816,5,4,38.959015,-77.12165
1747,2785098,"Kreeger Plan, PCI - 20814",20814,5,4,38.99006,-77.11541
1748,2281986,"Salem - 4506 Cortland Drive Plan, PCI - 20815",20815,4,4,38.97465,-77.090195
1749,2651986,"Merrimac Plan, PCI - 20815",20815,5,5,38.97465,-77.090195
1750,2820098,"Kreeger - 4922 Earlston Drive Bethesda Plan, PCI - 20816",20816,5,4,38.959015,-77.12165
1751,2796055,"Kreeger C - 4922 Earlston Drive Plan, PCI - 20816",20816,5,5,38.959015,-77.12165
1752,3800436,"Windsor Plan, PCI - 20814",20814,2,3,38.99006,-77.11541
1754,1623995,"Eltham Plan, Amalyn - The Nouveau Collection",20817,3,4,39.018017,-77.14129
1755,2821986,"Oliver Plan, PCI - 20814",20814,6,7,38.99006,-77.11541
1757,2785098,"Kreeger Plan, PCI - 20816",20816,5,4,38.959015,-77.12165
1758,2677866,"Andover B - 5210 Andover Road Plan, PCI - 20815",20815,4,5,38.97465,-77.090195
1759,2689984,"Wrightson Plan, PCI - 20814",20814,6,6,38.99006,-77.11541
1761,4937436,"Windsor Plan, PCI - 20814",20814,2,3,38.99006,-77.11541
1762,2440995,"Kalorama Plan, Amalyn - The Maison Collection",20817,5,6,39.01698,-77.144646
1763,2254666,"Park Plan, PCI - 20852",20817,5,5,39.04403,-77.130455
1764,2293655,"Rockmere Plan, PCI - 20816",20816,5,5,38.959015,-77.12165
1765,2785098,"Kreeger Plan, PCI - 20815",20815,5,4,38.97465,-77.090195
1766,2229984,"Davidson G Plan, PCI - 20814",20814,4,5,38.99006,-77.11541
1768,2295066,"Sage Plan, PCI - 20815",20815,5,5,38.97465,-77.090195
1769,2321986,"Oliver Plan, PCI - 20816",20816,6,7,38.959015,-77.12165
1771,4399999,"5200 D Murray Road Plan, PCI - 20815",20815,5,6,38.97465,-77.090195
1772,2850000,"M Moorland Plan, PCI - 20815",20815,5,6,38.97465,-77.090195
1773,2885000,"Volta Siding & Brick Plan, PCI - 20815",20815,6,6,38.97465,-77.090195
1774,3843655,"Rockmere Plan, PCI -20016",20817,5,5,38.980145,-77.11481
1775,2436555,"Pine Plan, PCI - 20852",20817,5,5,39.04403,-77.130455
1776,2883655,"Rockmere Plan, PCI - 20852",20817,5,5,39.04403,-77.130455
1777,1665995,"Fenn Plan, Amalyn - The Nouveau Collection",20817,4,4,39.018017,-77.14129
1778,1400000,"The Edinburgh Plan, Northside",20854,5,5,39.0628,-77.15857
1783,1864995,"Chatwal Plan, Amalyn - The Moderne Collection",20817,4,5,39.018517,-77.140785
1784,1703995,"Florin Plan, Amalyn - The Nouveau Collection",20817,3,4,39.018017,-77.14129
1786,2754666,"Park Plan, PCI - 20815",20815,5,5,38.97465,-77.090195
1789,1748995,"Odeon Plan, Amalyn - The Nouveau Collection",20817,4,4,39.018017,-77.14129
1794,1942995,"Deca Plan, Amalyn - The Moderne Collection",20817,4,5,39.018517,-77.140785
1797,1200000,"The Cambridge Plan, Northside",20854,5,5,39.0628,-77.15857
1802,1195900,"Sterling Plan, Northpark Towns",20852,3,2,39.051853,-77.12624
1803,2489900,"Aspen Plan, Amalyn Harmony Collection",20817,5,7,39.01821,-77.14427
1806,2191986,"Merrimac Plan, PCI - 20816",20816,5,5,38.959015,-77.12165
1807,2224982,"Birkhaven Plan, PCI - 20815",20815,5,5,38.97465,-77.090195
1808,2799654,"V Volta Plan, PCI - 20815",20815,5,5,38.97465,-77.090195
1810,2464982,"Rolston Plan, PCI - 20816",20816,5,4,38.959015,-77.12165
1811,2759984,"Battery Park Plan, PCI - 20816",20816,5,4,38.959015,-77.12165
1812,2344982,"Rolston M Plan, PCI - 20814",20814,6,7,38.99006,-77.11541
1813,2655655,"Plainview Plan, PCI - 20852",20817,6,5,39.04403,-77.130455
1814,3899788,"Warner Plan, PCI -20016",20817,6,7,38.980145,-77.11481
1815,2221986,"Multi-Plan, PCI - 20815",20815,5,5,38.97465,-77.090195
1817,2198444,"Pelham Plan, PCI - 20816",20816,5,4,38.959015,-77.12165
1818,2459988,"Cardiff Plan, PCI - 20814",20814,5,5,38.99006,-77.11541
1819,2476998,"Glenrose Plan, PCI - 20814",20814,5,5,38.99006,-77.11541
1820,2538599,"Yuma - 4922 Earlston Drive Plan, PCI - 20816",20816,5,5,38.959015,-77.12165
1822,2271986,"Macon Plan, PCI - 20852",20817,5,5,39.04403,-77.130455
1823,2244982,"Glenwood Plan, PCI - 20814",20814,4,3,38.99006,-77.11541
1824,3855655,"Plainview Plan, PCI -20016",20817,6,5,38.980145,-77.11481
1825,3698999,"Nevis Plan, PCI -20016",20817,5,5,38.980145,-77.11481
1826,2358788,"Rosemont Contemporary Plan, PCI - 20815",20815,5,4,38.97465,-77.090195
1827,2877744,"Oliver Plan, PCI - 20815",20815,6,7,38.97465,-77.090195
1828,2689755,"Harlan Plan, PCI - 20816",20816,5,5,38.959015,-77.12165
1830,3698444,"Pelham Plan, PCI -20016",20817,5,4,38.980145,-77.11481
1831,2699984,"Wrightson Plan, PCI - 20816",20816,6,6,38.959015,-77.12165
1832,2721986,"Garfield Plan, PCI - 20814",20814,6,6,38.99006,-77.11541
1833,2885000,"Volta A Plan, PCI - 20815",20815,6,6,38.97465,-77.090195
1834,2596555,"Pine Plan, PCI - 20814",20814,5,5,38.99006,-77.11541
1835,2487988,"Winnett Plan, PCI - 20814",20814,5,5,38.99006,-77.11541
1836,2221986,"Rosemont Contemporary Plan, PCI - 20814",20814,5,4,38.99006,-77.11541
1837,2238444,"Pelham Plan, PCI - 20815",20815,5,4,38.97465,-77.090195
1839,3244982,"Birkhaven Plan, PCI - 20814",20814,5,5,38.99006,-77.11541
1840,2659984,"Iroquois Plan, PCI - 20852",20817,6,6,39.04403,-77.130455
1841,2468044,"Roseland Plan, PCI - 20816",20816,6,5,38.959015,-77.12165
1842,2681986,"Macon Plan, PCI - 20815",20815,5,5,38.97465,-77.090195
1843,2344982,"Rolston S Plan, PCI - 20815",20815,5,4,38.97465,-77.090195
1844,2721485,"Ariel Plan, PCI -20016",20817,5,5,38.980145,-77.11481
1845,2244982,"Rolston M Plan, PCI - 20815",20815,6,7,38.97465,-77.090195
1846,2389644,"Lia D - 4506 Cortland Road Plan, PCI - 20815",20815,5,5,38.97465,-77.090195
1868,1979605,"P Rockmere Plan, PCI - 20815",20815,6,5,38.97465,-77.090195
1927,2181986,"Salem Plan, PCI - 20815",20815,4,4,38.97465,-77.090195
1928,2249984,"Halbert Plan, PCI - 20815",20815,4,5,38.97465,-77.090195
1929,4174875,"5200 E Murray Plan, PCI - 20815",20815,5,6,38.97465,-77.090195
1930,2459988,"Cardiff Plan, PCI - 20815",20815,5,5,38.97465,-77.090195
1931,4384455,"5200 B Murray Road Plan, PCI - 20815",20815,6,7,38.97465,-77.090195
1932,2729984,"Wrightson Plan, PCI - 20815",20815,6,6,38.97465,-77.090195
1933,2200000,"Bethesda & Chevy Chase Lots Plan, PCI - 20814",20814,5,5,38.99006,-77.11541
1934,2462096,"Taylor - 4506 Cortland Drive Plan, PCI - 20815",20815,5,5,38.97465,-77.090195
1935,2848655,"Rockmere Plan, PCI - 20815",20815,5,5,38.97465,-77.090195
1936,4350000,"5200 A Murray Road Plan, PCI - 20815",20815,5,6,38.97465,-77.090195
1937,2677866,"Andover - 5210 Andover Road Plan, PCI - 20815",20815,4,5,38.97465,-77.090195
1938,3686555,"Pine Plan, PCI -20016",20817,5,5,38.980145,-77.11481
1939,2319505,"Halbert Plan, PCI - 20852",20817,4,5,39.04403,-77.130455
1940,2359788,"5200 F Murray Road Plan, PCI - 20815",20815,5,4,38.97465,-77.090195
1941,2184332,"5401 D Trent Street Plan, PCI - 20815",20815,4,5,38.97465,-77.090195
1942,2744099,"Roseland Plan, PCI - 20815",20815,6,5,38.97465,-77.090195
1943,2259984,"Rocton Plan, PCI - 20814",20814,4,4,38.99006,-77.11541
1944,2354666,"Park Plan, PCI - 20814",20814,5,5,38.99006,-77.11541
1945,2221986,"Oliver Plan, PCI - 20852",20817,6,7,39.04403,-77.130455
1946,2781986,"Davidson G Plan, PCI - 20816",20816,4,5,38.959015,-77.12165
1948,2294666,"Park Plan, PCI - 20816",20816,5,5,38.959015,-77.12165
1949,2629984,"Greystone - CC Plan, PCI - 20815",20815,4,5,38.97465,-77.090195
1950,2181986,"Halbert Plan, PCI - 20816",20816,4,5,38.959015,-77.12165
1951,1887000,"Aurora Plan, PCI - 20816",20816,4,4,38.959015,-77.12165
1953,2507988,"Winnett Plan, PCI - 20815",20815,5,5,38.97465,-77.090195
1954,4250000,"6529 Elgin Lane Plan, PCI - 20815",20815,5,6,38.97465,-77.090195
1955,3291986,"Garfield Plan, PCI - 20815",20815,6,7,38.97465,-77.090195
1956,2476998,"Glenrose Plan, PCI - 20815",20815,5,5,38.97465,-77.090195
1957,3121986,"Davidson G Plan, PCI -20016",20817,4,5,38.980145,-77.11481
1958,2359984,"4799 Chevy Chase Blvd. Plan, PCI - 20815",20815,5,6,38.97465,-77.090195
1959,2471485,"Roseland Plan, PCI - 20852",20817,6,5,39.04403,-77.130455
1960,2699984,"Multi-Plan, PCI - 20852",20817,5,5,39.04403,-77.130455
1961,2397594,"Glenrose - 4506 Cortland Drive Plan, PCI - 20815",20815,5,5,38.97465,-77.090195
1962,2781986,"Langland - 4812 Chevy Chase Blvd. Plan, PCI - 20815",20815,5,4,38.97465,-77.090195
1963,2331986,"Oliver Plan, PCI - 20815",20815,6,7,38.97465,-77.090195
1964,2875566,"5401 Trent Street Plan, PCI - 20815",20815,6,7,38.97465,-77.090195
1965,2677866,"Andover C - 5210 Andover Road Plan, PCI - 20815",20815,4,5,38.97465,-77.090195
1966,3889505,"Halbert Plan, PCI -20016",20817,4,5,38.980145,-77.11481
1967,2224982,"Rolston Plan, PCI - 20815",20815,5,4,38.97465,-77.090195
1970,3374554,"Upland Plan, PCI -20016",20817,5,5,38.980145,-77.11481
1977,3441986,"Balsam Model Plan, PCI - 20814",20814,6,5,38.99006,-77.11541
1979,3830000,"Greystone Plan, PCI -20016",20817,4,5,38.980145,-77.11481
1981,3187766,"C Copley Plan, PCI - 20852",20817,5,6,39.04403,-77.130455
1985,3889504,"Madison Plan, PCI -20016",20817,5,4,38.980145,-77.11481
1986,2854985,"P Winnett Plan, PCI - 20815",20815,6,6,38.97465,-77.090195
1987,2954985,"P Winnett Plan, PCI - 20814",20814,6,6,38.99006,-77.11541
1988,2221986,"Fairfax Plan, PCI - 20814",20814,5,5,38.99006,-77.11541
1989,2874554,"Upland Plan, PCI - 20852",20817,5,5,39.04403,-77.130455
1990,2889504,"Madison Plan, PCI - 20852",20817,5,4,39.04403,-77.130455
1991,3287766,"C Copley Plan, PCI - 20816",20816,5,6,38.959015,-77.12165
1994,2246986,"Balsam Model Plan, PCI - 20816",20816,6,5,38.959015,-77.12165
1996,2389984,"Greystone - CC Plan, PCI - 20816",20816,4,5,38.959015,-77.12165
1999,2767504,"P Shelton Plan, PCI - 20814",20814,5,5,38.99006,-77.11541
2000,2579085,"Whitehall Plan, PCI - 20815",20815,5,5,38.97465,-77.090195
2001,869900,"Emery Plan, Northpark Towns",20852,3,3,39.051853,-77.12624
2005,2259844,"Rolston M Plan, PCI - 20816",20816,6,7,38.959015,-77.12165
2006,2070658,"P Culpeper Plan, PCI - 20852",20817,5,5,39.04403,-77.130455
2010,1260900,"Quinn Plan, Northpark Towns",20852,3,2,39.051853,-77.12624
2011,1590000,"The Nottingham Plan, Northside",20854,5,5,39.0628,-77.15857
2025,2487988,"P Thornapple Plan, PCI - 20852",20817,5,5,39.04403,-77.130455
2026,2198444,"Pelham Plan, PCI - 20814",20814,5,4,38.99006,-77.11541
2027,2187694,"Merrimac Plan, PCI - 20814",20814,5,5,38.99006,-77.11541
2028,2387799,"Sycamore Plan, PCI - 20814",20814,5,4,38.99006,-77.11541
2029,3329954,"Warner Plan, PCI - 20816",20816,6,7,38.959015,-77.12165
2030,2241986,"Macon Plan, PCI - 20814",20814,5,5,38.99006,-77.11541
2031,3954985,"P Winnett Plan, PCI -20016",20817,6,6,38.980145,-77.11481
2032,2244982,"Greystone - CC Plan, PCI - 20814",20814,5,5,38.99006,-77.11541
2034,2779984,"Iroquois Plan, PCI - 20815",20815,6,6,38.97465,-77.090195
2035,2476665,"Metro Plan, PCI - 20814",20814,5,5,38.99006,-77.11541
2039,3321986,"Merrimac Plan, PCI -20016",20817,5,5,38.980145,-77.11481
2040,3476998,"Glenrose Plan, PCI -20016",20817,5,5,38.980145,-77.11481
2041,3254984,"Lyon Plan, PCI - 20816",20816,5,5,38.959015,-77.12165
2042,2895094,"Hawthorne Plan, PCI - 20815",20815,5,5,38.97465,-77.090195
2043,3487988,"P Thornapple Plan, PCI -20016",20817,5,5,38.980145,-77.11481
2044,3599605,"P Rockmere Plan, PCI -20016",20817,6,5,38.980145,-77.11481
2045,2191986,"Multi-Plan, PCI - 20816",20816,5,5,38.959015,-77.12165
2046,2867504,"P Shelton Plan, PCI - 20816",20816,5,5,38.959015,-77.12165
2047,3298505,"Roseland Plan, PCI - 20814",20814,6,5,38.99006,-77.11541
2048,3544982,"Macon Plan, PCI -20016",20817,5,5,38.980145,-77.11481
2049,2241986,"Balsam Model Plan, PCI - 20815",20815,6,5,38.97465,-77.090195
2050,2459988,"Cardiff Plan, PCI - 20816",20816,5,5,38.959015,-77.12165
2051,3887988,"Winnett Plan, PCI -20016",20817,5,5,38.980145,-77.11481
2053,2655655,"Plainview Plan, PCI - 20814",20814,6,5,38.99006,-77.11541
2054,2221986,"Multi-Plan, PCI - 20814",20814,5,5,38.99006,-77.11541
2056,2987744,"Oliver Plan, PCI - 20814",20814,6,7,38.99006,-77.11541
2058,2170658,"P Culpeper Plan, PCI - 20814",20814,5,5,38.99006,-77.11541
2060,2284982,"Moorland - CC Plan, PCI - 20815",20815,5,6,38.97465,-77.090195
2061,3221485,"Nevis Plan, PCI - 20816",20816,5,5,38.959015,-77.12165
2062,3070658,"P Culpeper Plan, PCI -20016",20817,5,5,38.980145,-77.11481
2063,1254900,"Ainsley Plan, Amalyn Origin Collection",20817,3,3,39.01747,-77.1433
2064,3459988,"Cardiff Plan, PCI -20016",20817,5,5,38.980145,-77.11481
2065,2444982,"Glenwood Plan, PCI - 20816",20816,4,3,38.959015,-77.12165
2070,4187766,"C Copley Plan, PCI -20016",20817,5,6,38.980145,-77.11481
2075,3287766,"C Copley Plan, PCI - 20815",20815,5,6,38.97465,-77.090195
2084,4087887,"Brentwood B Plan, PCI - 20852",20817,6,7,39.04403,-77.130455
2087,4087887,"Brentwood B Plan, PCI - 20815",20815,6,7,38.97465,-77.090195
2089,3879085,"Whitehall Plan, PCI -20016",20817,5,5,38.980145,-77.11481
2092,2879085,"Whitehall Plan, PCI - 20852",20817,5,5,39.04403,-77.130455
2095,4087887,"Brentwood B Plan, PCI - 20814",20814,6,7,38.99006,-77.11541
2099,3599954,"Warner Plan, PCI - 20814",20814,6,7,38.99006,-77.11541
2100,5387887,"Brentwood B Plan, PCI -20016",20817,6,7,38.980145,-77.11481
2101,4087887,"Brentwood B Plan, PCI - 20816",20816,6,7,38.959015,-77.12165
2105,2476998,"Glenrose Plan, PCI - 20816",20816,5,5,38.959015,-77.12165
2106,3487766,"C Copley Plan, PCI - 20814",20814,5,6,38.99006,-77.11541
